time,x,y,z,yaw,platform,trajectory,traj_double,traj_short,traj_spin,lookahead_time,traj_time,ref_time,comptime,x_ref,y_ref,yaw_ref,z_ref,throttle_input,p_input,q_input,r_input,cbf_term_pitch_cbf,cbf_term_roll_cbf,cbf_term_thrust_cbf,cbf_term_yaw_cbf
10.09239149093628,0.046181906,-0.047562305,-2.872533,0.012945180773298735,SIM,F8_CONTRACTION,DblSpd,Not Short,NoSpin,0.0,0.09047222137451172,0.09047222137451172,0.002315044403076172,0.11362953,0.11344598,0.0,-3.0,0.6809306685580985,0.8,-0.8,-0.22513727997494473,nan,nan,nan,nan
10.192378520965576,0.052547567,-0.042426743,-2.877923,0.012020843792221398,nan,nan,nan,nan,nan,nan,0.19045495986938477,0.19045495986938477,0.0029108524322509766,0.23876196,0.23705445,0.0,-3.0,0.6966421243135005,0.8,-0.8,-0.28073607011053414,nan,nan,nan,nan
10.29251480102539,0.060814764,-0.034439094,-2.8831825,0.008974850308361062,nan,nan,nan,nan,nan,nan,0.29064035415649414,0.29064035415649414,0.0024924278259277344,0.36320287,0.3571636,0.0,-3.0,0.715645591654694,0.8,-0.8,-0.2858500869113007,nan,nan,nan,nan
10.392197608947754,0.07671083,-0.01890287,-2.8877926,-0.006118651549394456,nan,nan,nan,nan,nan,nan,0.39029955863952637,0.39029955863952637,0.003343343734741211,0.48556364,0.47103602,0.0,-3.0,0.774469462935188,0.5261795365482336,-0.7999999999999999,0.02629329567021421,nan,nan,nan,nan
10.492441177368164,0.1063482,0.008584996,-2.8975306,-0.03054608869256356,nan,nan,nan,nan,nan,nan,0.4905509948730469,0.4905509948730469,0.0024788379669189453,0.60673034,0.5781378,0.0,-3.0,0.8141315074763255,-0.051742547920837684,-0.5031137022190139,0.07421867078897117,nan,nan,nan,nan
10.592295169830322,0.16927008,0.06009328,-2.9238343,-0.05510348514761247,nan,nan,nan,nan,nan,nan,0.590399980545044,0.590399980545044,0.0022859573364257812,0.7250192,0.6757034,0.0,-3.0,0.8029026926942833,-0.4218438204051396,0.003380713041038801,0.07251442829643175,nan,nan,nan,nan
10.692418575286865,0.2652456,0.12519574,-2.9623442,-0.0757710735476656,nan,nan,nan,nan,nan,nan,0.6905322074890137,0.6905322074890137,0.0022735595703125,0.84077835,0.7628751,0.0,-3.0,0.7465880580798081,-0.6186214215655567,0.42885061918436546,0.02943975086435639,nan,nan,nan,nan
10.792351961135864,0.41016072,0.2012021,-3.0097551,-0.12034476925531788,nan,nan,nan,nan,nan,nan,0.7904651165008545,0.7904651165008545,0.0022735595703125,0.9529903,0.83784723,0.0,-3.0,0.7039357128250552,-0.5847168045136554,0.6245261502750106,0.07826656616690014,nan,nan,nan,nan
10.892321109771729,0.5770803,0.2599169,-3.0493202,-0.19406518685914934,nan,nan,nan,nan,nan,nan,0.8904707431793213,0.8904707431793213,0.002198934555053711,1.0615238,0.8996637,0.0,-3.0,0.677034408404037,-0.39552434986845797,0.7632413746262982,0.15824545061356685,nan,nan,nan,nan
10.992307662963867,0.7812983,0.29801843,-3.0804856,-0.28837019720963997,nan,nan,nan,nan,nan,nan,0.9905288219451904,0.9905288219451904,0.0024149417877197266,1.165921,0.9473114,0.0,-3.0,0.6710123403999205,-0.2024154036893045,0.7913095291803341,0.33120041764839364,nan,nan,nan,nan
11.092558860778809,0.9775191,0.30639884,-3.0958796,-0.3644249255758958,nan,nan,nan,nan,nan,nan,1.0908234119415283,1.0908234119415283,0.0023860931396484375,1.2659415,0.9800612,0.0,-3.0,0.685484029842167,-0.06406844870848377,0.6996795749359597,0.47237696836390136,nan,nan,nan,nan
11.192299127578735,1.1666538,0.29512164,-3.1004128,-0.41161899702517146,nan,nan,nan,nan,nan,nan,1.1903886795043945,1.1903886795043945,0.0023670196533203125,1.3602649,0.9971956,0.0,-3.0,0.7093610382086214,-0.053014800949598366,0.502050676050862,0.5565530257068813,nan,nan,nan,nan
11.292335987091064,1.3375623,0.2741274,-3.0986538,-0.4229664422814464,nan,nan,nan,nan,nan,nan,1.290435791015625,1.290435791015625,0.0023872852325439453,1.4496835,0.9987093,0.0,-3.0,0.7299271604890399,-0.09635199343500146,0.2311659198828482,0.5650866396205201,nan,nan,nan,nan
11.392285108566284,1.4930484,0.25072584,-3.094597,-0.3981132502214818,nan,nan,nan,nan,nan,nan,1.3904132843017578,1.3904132843017578,0.002414226531982422,1.5333195,0.9844733,0.0,-3.0,0.7375844879665054,-0.17615023172497665,-0.011216135083599936,0.49742699871686274,nan,nan,nan,nan
11.492311954498291,1.6061411,0.23462239,-3.0912428,-0.3515285571011574,nan,nan,nan,nan,nan,nan,1.4904091358184814,1.4904091358184814,0.0023088455200195312,1.6109205,0.9547117,0.0,-3.0,0.7354824788647547,-0.23503680807795077,-0.1808337075174977,0.4072368373572636,nan,nan,nan,nan
11.592585802078247,1.6914157,0.22417894,-3.0889547,-0.29493274992221696,nan,nan,nan,nan,nan,nan,1.5907001495361328,1.5907001495361328,0.002452373504638672,1.6823651,0.90974104,0.0,-3.0,0.7311593173032749,-0.26536249881020996,-0.2583062623000014,0.315967168029365,nan,nan,nan,nan
11.692453384399414,1.7557583,0.2162391,-3.0871527,-0.23342555759310718,nan,nan,nan,nan,nan,nan,1.6905968189239502,1.6905968189239502,0.0024073123931884766,1.7468902,0.85060036,0.0,-3.0,0.7293362612368895,-0.20469174400754972,-0.2713910241342608,0.24218530044032321,nan,nan,nan,nan
11.79312777519226,1.7950388,0.20759751,-3.0849164,-0.18344238766237883,nan,nan,nan,nan,nan,nan,1.7912614345550537,1.7912614345550537,0.002495288848876953,1.8049513,0.77746636,0.0,-3.0,0.729916096546602,-0.14255873142522885,-0.2521667598125792,0.19363110009613432,nan,nan,nan,nan
11.895316123962402,1.8188596,0.19291891,-3.0819125,-0.14291633144241891,nan,nan,nan,nan,nan,nan,1.8935842514038086,1.8935842514038086,0.003513813018798828,1.85657,0.6904019,0.0,-3.0,0.7323921335879379,-0.08635990370134049,-0.21786813127962906,0.1494312243954148,nan,nan,nan,nan
11.992438077926636,1.8323061,0.16380802,-3.0778205,-0.10735191514239993,nan,nan,nan,nan,nan,nan,1.9905509948730469,1.9905509948730469,0.002615213394165039,1.8984103,0.5973498,0.0,-3.0,0.7340281032354539,0.027377234080953605,-0.17323053555497758,0.13066896892593635,nan,nan,nan,nan
12.09253215789795,1.83523,0.12683818,-3.0740368,-0.08558174899791472,nan,nan,nan,nan,nan,nan,2.090667963027954,2.090667963027954,0.002626180648803711,1.9342166,0.49199674,0.0,-3.0,0.7348437396897468,0.09929344097247454,-0.1333382278380388,0.12459092049293527,nan,nan,nan,nan
12.19246220588684,1.8315346,0.07459309,-3.070394,-0.06909839852462736,nan,nan,nan,nan,nan,nan,2.190591812133789,2.190591812133789,0.0024297237396240234,1.9623249,0.37909102,0.0,-3.0,0.7352789691094065,0.13233238822556692,-0.09701439397441274,0.12214209773035473,nan,nan,nan,nan
12.295916557312012,1.8248059,0.02181518,-3.0678825,-0.05943427479438429,nan,nan,nan,nan,nan,nan,2.2941715717315674,2.2941715717315674,0.0029265880584716797,1.9832982,0.25577727,0.0,-3.0,0.7354535460215955,0.13704648422782725,-0.05987039323625351,0.12469119384052221,nan,nan,nan,nan
12.392515659332275,1.8139349,-0.049122006,-3.0661442,-0.05023703442722032,nan,nan,nan,nan,nan,nan,2.3907361030578613,2.3907361030578613,0.0025420188903808594,1.9952887,0.13687404,0.0,-3.0,0.7336128238286694,0.16449093430722242,-0.03156580081709738,0.12576826353863835,nan,nan,nan,nan
12.492437362670898,1.8012633,-0.12138727,-3.0657089,-0.042803748407809955,nan,nan,nan,nan,nan,nan,2.4905683994293213,2.4905683994293213,0.0030236244201660156,1.9999648,0.011851821,0.0,-3.0,0.7326845531770474,0.16308012324541343,0.005362752367371764,0.12607029188724084,nan,nan,nan,nan
12.593186855316162,1.7865876,-0.19775069,-3.066166,-0.03540897411209553,nan,nan,nan,nan,nan,nan,2.5913193225860596,2.5913193225860596,0.006525278091430664,1.9967088,-0.11450355,0.0,-3.0,0.7309256066855755,0.17529911975102344,0.028620126731282912,0.12065348496116197,nan,nan,nan,nan
12.69764518737793,1.7677599,-0.2889873,-3.067284,-0.02590780412194041,nan,nan,nan,nan,nan,nan,2.695816993713379,2.695816993713379,0.0029332637786865234,1.9848814,-0.2435951,0.0,-3.0,0.7295299236733749,0.1735543544663915,0.05299030629646398,0.10800036359109258,nan,nan,nan,nan
12.797892808914185,1.7484268,-0.37247938,-3.0688403,-0.016568649835296368,nan,nan,nan,nan,nan,nan,2.7961232662200928,2.7961232662200928,0.0039691925048828125,1.9654815,-0.36359066,0.0,-3.0,0.7283930249679883,0.1726163228324267,0.061278000475645474,0.08969908606588975,nan,nan,nan,nan
12.897040367126465,1.7305284,-0.44072682,-3.0702918,-0.008197363469417556,nan,nan,nan,nan,nan,nan,2.8955724239349365,2.8955724239349365,0.0038721561431884766,1.9385425,-0.4768706,0.0,-3.0,0.7278360216459487,0.16211953890023947,0.08112786422608882,0.0737447837158548,nan,nan,nan,nan
12.998738527297974,1.706675,-0.5163015,-3.0715964,0.0016111505420315538,nan,nan,nan,nan,nan,nan,2.997039318084717,2.997039318084717,0.003642559051513672,1.9032594,-0.5847712,0.0,-3.0,0.7279839500273305,0.15102026721365377,0.07662823771856567,0.04983997260473474,nan,nan,nan,nan
13.085828304290771,1.680929,-0.58017284,-3.0722919,0.01008397502629909,nan,nan,nan,nan,nan,nan,3.084357261657715,3.084357261657715,0.005121469497680664,1.8666993,-0.67008626,0.0,-3.0,0.7285038068407349,0.14058324334590033,0.07392612551989879,0.0329495611727111,nan,nan,nan,nan
13.201632261276245,1.648054,-0.6418916,-3.0726047,0.01835927858986307,nan,nan,nan,nan,nan,nan,3.199803113937378,3.199803113937378,0.003047943115234375,1.8097594,-0.7703555,0.0,-3.0,0.7296210401005144,0.11949832064862537,0.052795158592796945,0.009396647218292404,nan,nan,nan,nan
13.300207138061523,1.6089159,-0.6939626,-3.072923,0.025150345034876884,nan,nan,nan,nan,nan,nan,3.29842472076416,3.29842472076416,0.0029778480529785156,1.7535661,-0.8432656,0.0,-3.0,0.7306246455579086,0.11284175914142577,0.05181622104220017,-0.002178015745039253,nan,nan,nan,nan
13.392040967941284,1.570307,-0.7292236,-3.0732286,0.029267890339934828,nan,nan,nan,nan,nan,nan,3.3902742862701416,3.3902742862701416,0.003096342086791992,1.695173,-0.89955586,0.0,-3.0,0.7312964715342745,0.09347807514880602,0.028032082492745893,-0.012355470854257882,nan,nan,nan,nan
13.493321180343628,1.5176653,-0.75906503,-3.0734105,0.03226409145110909,nan,nan,nan,nan,nan,nan,3.4917047023773193,3.4917047023773193,0.004642486572265625,1.6241392,-0.94778365,0.0,-3.0,0.7320917678238479,0.0777499299584392,0.017638595153541867,-0.016422280003456875,nan,nan,nan,nan
13.591922998428345,1.4713993,-0.7726547,-3.073812,0.033252965935489515,nan,nan,nan,nan,nan,nan,3.5901107788085938,3.5901107788085938,0.0031495094299316406,1.548918,-0.97988284,0.0,-3.0,0.7329800061723976,0.07472683911624285,0.023717793581400352,-0.01395275729046822,nan,nan,nan,nan
13.687591791152954,1.4091855,-0.77855366,-3.0744998,0.033415331995380416,nan,nan,nan,nan,nan,nan,3.6859776973724365,3.6859776973724365,0.004200458526611328,1.4699429,-0.99676543,0.0,-3.0,0.7328954413493537,0.04533888704193728,0.0004196389953818304,-0.013311758089942177,nan,nan,nan,nan
13.79086184501648,1.3212821,-0.76810175,-3.0754886,0.03241940551400614,nan,nan,nan,nan,nan,nan,3.7891581058502197,3.7891581058502197,0.004191160202026367,1.3789941,-0.99878955,0.0,-3.0,0.7321934391586745,0.0030273622218983977,-0.030624685192108706,-0.01166582691027033,nan,nan,nan,nan
13.901684284210205,1.242594,-0.7454404,-3.0760396,0.031042176448732056,nan,nan,nan,nan,nan,nan,3.9000048637390137,3.9000048637390137,0.003982067108154297,1.2748432,-0.9822861,0.0,-3.0,0.7326804433484114,0.002790759899542476,-0.01755169652272578,-0.003961585061467301,nan,nan,nan,nan
13.990278720855713,1.1350653,-0.70032495,-3.0765686,0.02919866023979626,nan,nan,nan,nan,nan,nan,3.9910316467285156,3.9910316467285156,0.006604194641113281,1.1846694,-0.9544787,0.0,-3.0,0.7315812856471889,-0.035602393530644254,-0.04665173601786105,-0.004093734651675158,nan,nan,nan,nan
14.07803750038147,1.0504041,-0.6562694,-3.077022,0.02821013392423262,nan,nan,nan,nan,nan,nan,4.078400373458862,4.078400373458862,0.007769584655761719,1.0944717,-0.91604924,0.0,-3.0,0.7319757924492442,-0.028364727846760168,-0.030489669437365925,-0.001258862264566648,nan,nan,nan,nan
14.20239782333374,0.96110356,-0.6040418,-3.0777576,0.02790311746636221,nan,nan,nan,nan,nan,nan,4.2009804248809814,4.2009804248809814,0.007858753204345703,0.9624275,-0.84366715,0.0,-3.0,0.7314770509609494,-0.04341968078238435,-0.024986538529843328,0.008487187493777708,nan,nan,nan,nan
14.292583703994751,0.84161,-0.52636904,-3.0786247,0.027628461874694886,nan,nan,nan,nan,nan,nan,4.291308641433716,4.291308641433716,0.007815122604370117,0.86142826,-0.77742904,0.0,-3.0,0.7279994584942381,-0.13106286206666276,-0.09606546916661197,0.005491760029934308,nan,nan,nan,nan
14.389886617660522,0.73455715,-0.45075163,-3.079461,0.02690150012080362,nan,nan,nan,nan,nan,nan,4.388540267944336,4.388540267944336,0.0065593719482421875,0.74961936,-0.69497347,0.0,-3.0,0.7274167118695035,-0.14248214206229382,-0.09260876273079931,0.006705218192716131,nan,nan,nan,nan
14.504096508026123,0.5963172,-0.34628293,-3.0806668,0.025333950725463322,nan,nan,nan,nan,nan,nan,4.5044355392456055,4.5044355392456055,0.007082223892211914,0.61273056,-0.5832668,0.0,-3.0,0.7273131808455604,-0.1366952926329989,-0.0748038912841285,0.004542185434966973,nan,nan,nan,nan
14.58261513710022,0.511725,-0.27947247,-3.0816371,0.024227140879551214,nan,nan,nan,nan,nan,nan,4.5818493366241455,4.5818493366241455,0.007256507873535156,0.51943916,-0.50161415,0.0,-3.0,0.7273340816555854,-0.13002009571327608,-0.060098079347139864,0.0018397616344300925,nan,nan,nan,nan
14.693408727645874,0.3786263,-0.171055,-3.0834968,0.02354404396587282,nan,nan,nan,nan,nan,nan,4.693735599517822,4.693735599517822,0.008762598037719727,0.38249233,-0.37543234,0.0,-3.0,0.7264700072071857,-0.13155596552242713,-0.05071800718975748,-0.0020370600387658623,nan,nan,nan,nan
14.805720329284668,0.2831046,-0.09145769,-3.0846794,0.02347297615587228,nan,nan,nan,nan,nan,nan,4.804703712463379,4.804703712463379,0.007123470306396484,0.24480113,-0.24296042,0.0,-3.0,0.7275645809946508,-0.08064520956310063,0.020046407427296634,-0.007003071432655095,nan,nan,nan,nan
14.88604474067688,0.15882085,0.013266116,-3.0860095,0.023624714706613155,nan,nan,nan,nan,nan,nan,4.8858802318573,4.8858802318573,0.009674072265625,0.14328428,-0.1429161,0.0,-3.0,0.725319807071324,-0.14542064622116802,-0.05849345085495079,-0.005269961161292447,nan,nan,nan,nan
15.00275731086731,0.024843398,0.12559758,-3.0878165,0.02373212331524652,nan,nan,nan,nan,nan,nan,5.002070903778076,5.002070903778076,0.007239341735839844,-0.0026023737,0.0026023714,0.0,-3.0,0.7252971792661855,-0.1418053329813613,-0.04904038835573743,-0.006501831272180785,nan,nan,nan,nan
15.10397720336914,-0.09872964,0.22825882,-3.0892713,0.023490388925486157,nan,nan,nan,nan,nan,nan,5.102558851242065,5.102558851242065,0.006642818450927734,-0.12879008,0.12852277,0.0,-3.0,0.7252161204881917,-0.15059742110336855,-0.06254545788690295,-0.010514253770871958,nan,nan,nan,nan
15.178904056549072,-0.15537372,0.2745855,-3.0897944,0.023191726957758632,nan,nan,nan,nan,nan,nan,5.1782567501068115,5.1782567501068115,0.0072214603424072266,-0.223536,0.2221354,0.0,-3.0,0.7254187565771144,-0.13535083402296108,-0.030731848978866837,-0.014994140351234515,nan,nan,nan,nan
15.282974004745483,-0.27692991,0.3709729,-3.0907376,0.0222599071614458,nan,nan,nan,nan,nan,nan,5.281620502471924,5.281620502471924,0.0072023868560791016,-0.3520509,0.34655383,0.0,-3.0,0.7258217196117864,-0.13221855776262298,-0.015808341584277918,-0.021667107761433328,nan,nan,nan,nan
15.385533809661865,-0.38690498,0.45382902,-3.0910676,0.021048781460700335,nan,nan,nan,nan,nan,nan,5.384286165237427,5.384286165237427,0.007982254028320312,-0.47822964,0.4643568,0.0,-3.0,0.7263729540078105,-0.12572090099715488,-0.011233138420313789,-0.02590650412190042,nan,nan,nan,nan
15.483880043029785,-0.50321084,0.5362903,-3.0904732,0.019101704874443275,nan,nan,nan,nan,nan,nan,5.482458829879761,5.482458829879761,0.0067250728607177734,-0.59703285,0.5698108,0.0,-3.0,0.7271283165575856,-0.11700328106396177,-0.005865233048453733,-0.028974918916438063,nan,nan,nan,nan
15.599698543548584,-0.6497227,0.6309249,-3.0876133,0.015553807867643484,nan,nan,nan,nan,nan,nan,5.598238945007324,5.598238945007324,0.00653529167175293,-0.73419106,0.6829322,0.0,-3.0,0.7288845693335418,-0.09487507277851094,-0.03705912388513003,-0.02368435229447377,nan,nan,nan,nan
15.696373462677002,-0.74121374,0.68303704,-3.0849764,0.012771827177540405,nan,nan,nan,nan,nan,nan,5.6949334144592285,5.6949334144592285,0.007253170013427734,-0.84579337,0.76643926,0.0,-3.0,0.7300821479270839,-0.08837951482643648,-0.030865250754789478,-0.025789559197836865,nan,nan,nan,nan
15.796189546585083,-0.8467861,0.7348403,-3.081967,0.009162593023405025,nan,nan,nan,nan,nan,nan,5.794804811477661,5.794804811477661,0.007059574127197266,-0.9577813,0.84081185,0.0,-3.0,0.7313683638925115,-0.07869526803728108,-0.03448608102004418,-0.025407027670787723,nan,nan,nan,nan
15.893312454223633,-0.9415033,0.7720591,-3.079475,0.005518666292513262,nan,nan,nan,nan,nan,nan,5.891895294189453,5.891895294189453,0.00592494010925293,-1.0630405,0.9004438,0.0,-3.0,0.7321689326497253,-0.06911346251322462,-0.04112154933352298,-0.024849734646790588,nan,nan,nan,nan
16.00255537033081,-1.0184542,0.79448205,-3.0777152,0.002422516575238731,nan,nan,nan,nan,nan,nan,6.000843048095703,6.000843048095703,0.003574371337890625,-1.1764274,0.95138335,0.0,-3.0,0.7328073922447809,-0.08312280016144699,-0.030359931546003766,-0.03271382870894211,nan,nan,nan,nan
16.093763828277588,-1.1160781,0.8119431,-3.0754976,-0.0015308723658487428,nan,nan,nan,nan,nan,nan,6.091818809509277,6.091818809509277,0.0018715858459472656,-1.2669097,0.98030895,0.0,-3.0,0.7328973434906104,-0.037555291286716815,-0.0571174046840839,-0.026433402277728342,nan,nan,nan,nan
16.19239068031311,-1.2033182,0.8158002,-3.0736175,-0.005099425499688295,nan,nan,nan,nan,nan,nan,6.190466403961182,6.190466403961182,0.002130270004272461,-1.3603364,0.9972029,0.0,-3.0,0.732991819904894,-0.01473593258736967,-0.06284274016970143,-0.024680986470967732,nan,nan,nan,nan
16.292325496673584,-1.2942979,0.8069389,-3.0715203,-0.008802033930811998,nan,nan,nan,nan,nan,nan,6.290441989898682,6.290441989898682,0.002172708511352539,-1.4496889,0.9987089,0.0,-3.0,0.7333491631641662,-0.010385812168064933,-0.06056165661457834,-0.02415641323751771,nan,nan,nan,nan
16.39702844619751,-1.3741375,0.7872313,-3.0697863,-0.012117248635970149,nan,nan,nan,nan,nan,nan,6.395230293273926,6.395230293273926,0.0028564929962158203,-1.537199,0.9833927,0.0,-3.0,0.7335166359648541,-0.0012011528393840387,-0.05775848002483804,-0.02229475206088739,nan,nan,nan,nan
16.498108625411987,-1.4612103,0.7506358,-3.0679593,-0.01556569891065003,nan,nan,nan,nan,nan,nan,6.496271133422852,6.496271133422852,0.003000020980834961,-1.6152753,0.9524941,0.0,-3.0,0.7336438620279963,0.001987870065600524,-0.05408396753800926,-0.019735393176317683,nan,nan,nan,nan
16.58885145187378,-1.518911,0.71598566,-3.0668538,-0.017660758073175492,nan,nan,nan,nan,nan,nan,6.587237596511841,6.587237596511841,0.006041049957275391,-1.6800082,0.9115389,0.0,-3.0,0.7335303312696405,0.012411299659203416,-0.05068094059845619,-0.01551050367106519,nan,nan,nan,nan
16.70288109779358,-1.5978518,0.65161175,-3.0659535,-0.02030419233961949,nan,nan,nan,nan,nan,nan,6.701216220855713,6.701216220855713,0.004577159881591797,-1.7533492,0.843508,0.0,-3.0,0.7329177763719293,0.038940410983771725,-0.044149575794533345,-0.008765258892675742,nan,nan,nan,nan
16.79522466659546,-1.6496887,0.5951335,-3.0658915,-0.021902198324948705,nan,nan,nan,nan,nan,nan,6.793505907058716,6.793505907058716,0.004173755645751953,-1.8061644,0.77568936,0.0,-3.0,0.731845627389528,0.07721640343825788,-0.035837212663010744,-0.0029825477940043222,nan,nan,nan,nan
16.89436149597168,-1.6921693,0.53799045,-3.0662222,-0.023075971810396778,nan,nan,nan,nan,nan,nan,6.893513202667236,6.893513202667236,0.00882577896118164,-1.8565367,0.6904665,0.0,-3.0,0.7322143580148538,0.05330484832900915,-0.03673671527527458,-0.004977431558233731,nan,nan,nan,nan
16.984196662902832,-1.740326,0.45636347,-3.0669365,-0.024084168789400506,nan,nan,nan,nan,nan,nan,6.9827880859375,6.9827880859375,0.005747079849243164,-1.8953182,0.60514474,0.0,-3.0,0.7309179779052302,0.09376448626224788,-0.03206636633756802,0.001496470389412599,nan,nan,nan,nan
17.084653854370117,-1.7856256,0.3535598,-3.068121,-0.024272855765771383,nan,nan,nan,nan,nan,nan,7.0831708908081055,7.0831708908081055,0.0061686038970947266,-1.9317988,0.5001768,0.0,-3.0,0.7294877348367674,0.13098515094328209,-0.01724128658600899,0.006571862664300968,nan,nan,nan,nan
17.193222284317017,-1.8176599,0.25156003,-3.0691233,-0.023511318174323156,nan,nan,nan,nan,nan,nan,7.191828727722168,7.191828727722168,0.00851893424987793,-1.9626245,0.37765223,0.0,-3.0,0.7292353080171251,0.13063191212471242,-0.015967042434984115,0.006233212404173817,nan,nan,nan,nan
17.30621910095215,-1.838694,0.15343773,-3.0698152,-0.02201174411919022,nan,nan,nan,nan,nan,nan,7.304912090301514,7.304912090301514,0.006965160369873047,-1.9849936,0.2427064,0.0,-3.0,0.7290156006508589,0.1225964154630214,-0.015201674007096199,0.0049662423361642085,nan,nan,nan,nan
17.38729763031006,-1.8464453,0.099523194,-3.0700946,-0.02095673098043561,nan,nan,nan,nan,nan,nan,7.385954141616821,7.385954141616821,0.007008790969848633,-1.9948674,0.14282417,0.0,-3.0,0.7293463943823202,0.09624923061876711,-0.029363640026138664,0.0018913181268639164,nan,nan,nan,nan
17.49495792388916,-1.8542553,-0.024653325,-3.0709176,-0.018162456340414145,nan,nan,nan,nan,nan,nan,7.494306564331055,7.494306564331055,0.0071697235107421875,-1.9999872,0.007154521,0.0,-3.0,0.7283252787008926,0.13076694669763886,0.0036416800036946613,0.005969100752283721,nan,nan,nan,nan
17.58268094062805,-1.8535717,-0.0788828,-3.071329,-0.01682015764613238,nan,nan,nan,nan,nan,nan,7.581449747085571,7.581449747085571,0.006878852844238281,-1.9973816,-0.102174155,0.0,-3.0,0.728900841761638,0.1104149194031904,-0.026105418376748412,-0.0005553575822047584,nan,nan,nan,nan
17.686422109603882,-1.8407608,-0.21534914,-3.072455,-0.01318372951575028,nan,nan,nan,nan,nan,nan,7.685755014419556,7.685755014419556,0.011174440383911133,-1.9863935,-0.23131257,0.0,-3.0,0.7283205543590638,0.1367834450561995,0.0022099335760445015,-0.00031387308801960766,nan,nan,nan,nan
17.772114038467407,-1.8331708,-0.25931582,-3.0728893,-0.011969121740059936,nan,nan,nan,nan,nan,nan,7.771462440490723,7.771462440490723,0.011706829071044922,-1.9709781,-0.33455196,0.0,-3.0,0.728466912446684,0.14537283676092264,0.0022142733715386207,-0.0037317440139967455,nan,nan,nan,nan
17.90449285507202,-1.8057826,-0.37151608,-3.073942,-0.008990903198144903,nan,nan,nan,nan,nan,nan,7.9037439823150635,7.9037439823150635,0.012944459915161133,-1.9359909,-0.4858712,0.0,-3.0,0.7283375344831007,0.15101230649141117,0.012338508691230446,-0.003841827404989214,nan,nan,nan,nan
18.000884532928467,-1.781292,-0.44332457,-3.0741525,-0.007131166579514625,nan,nan,nan,nan,nan,nan,8.000461101531982,8.000461101531982,0.007195234298706055,-1.9019339,-0.5882539,0.0,-3.0,0.7288756294806849,0.15219394154509364,-0.040498218121920115,-0.01577798244316143,nan,nan,nan,nan
18.09086036682129,-1.7379229,-0.5372514,-3.0742583,-0.0045535629613931185,nan,nan,nan,nan,nan,nan,8.089701175689697,8.089701175689697,0.007001161575317383,-1.8642782,-0.6750558,0.0,-3.0,0.7295070624649047,0.13268622574207156,0.011903496118740255,-0.010897356756642985,nan,nan,nan,nan
18.20157265663147,-1.695614,-0.6020443,-3.0751092,-0.0024715723908337803,nan,nan,nan,nan,nan,nan,8.20037031173706,8.20037031173706,0.004998922348022461,-1.8094559,-0.77080977,0.0,-3.0,0.7299370129832119,0.10383875960361388,0.010090244282043047,-0.013918656008781229,nan,nan,nan,nan
18.284740209579468,-1.6587528,-0.6437682,-3.0759902,-0.0008410641738847216,nan,nan,nan,nan,nan,nan,8.28353214263916,8.28353214263916,0.008208990097045898,-1.7624888,-0.8330595,0.0,-3.0,0.7300407030700936,0.0776075096197214,0.007952549111046417,-0.016924886035205224,nan,nan,nan,nan
18.395440578460693,-1.6007727,-0.6902297,-3.0771818,0.001333289082754055,nan,nan,nan,nan,nan,nan,8.394150972366333,8.394150972366333,0.007504940032958984,-1.6925828,-0.90167314,0.0,-3.0,0.7305819713189887,0.06240150574167139,-0.006033886509031006,-0.023795213138590756,nan,nan,nan,nan
18.500958681106567,-1.5401199,-0.7197415,-3.0780332,0.0029955790328091217,nan,nan,nan,nan,nan,nan,8.499695062637329,8.499695062637329,0.007235527038574219,-1.6182592,-0.95093805,0.0,-3.0,0.7310491998599079,0.05017366644125765,-0.013613843318308385,-0.02778334537059093,nan,nan,nan,nan
18.601215362548828,-1.4889103,-0.73286575,-3.0787785,0.00406524800396009,nan,nan,nan,nan,nan,nan,8.600030183792114,8.600030183792114,0.007712364196777344,-1.5410023,-0.9822944,0.0,-3.0,0.7320358713728699,0.05738055233591601,-0.03802348169649756,-0.03324041067789911,nan,nan,nan,nan
18.704041719436646,-1.4222903,-0.7375718,-3.0800064,0.005350063573546449,nan,nan,nan,nan,nan,nan,8.70264220237732,8.70264220237732,0.00698542594909668,-1.4556624,-0.9982297,0.0,-3.0,0.7321922486196589,0.039779263972740835,-0.025652854781759975,-0.03846511462794184,nan,nan,nan,nan
18.80342411994934,-1.3445904,-0.7291941,-3.0814385,0.006469265363167914,nan,nan,nan,nan,nan,nan,8.80203104019165,8.80203104019165,0.007662057876586914,-1.3672326,-0.99786323,0.0,-3.0,0.7322826146083294,0.03167397856998202,-0.0240211520154591,-0.04459910616969733,nan,nan,nan,nan
18.888641357421875,-1.2611173,-0.7066194,-3.0829456,0.007274935525761118,nan,nan,nan,nan,nan,nan,8.887447118759155,8.887447118759155,0.0072422027587890625,-1.2869626,-0.9851208,0.0,-3.0,0.7306195029589753,-0.023685471635800672,0.026843328134805642,-0.04492443122176809,nan,nan,nan,nan
18.98498821258545,-1.199943,-0.68340856,-3.0843902,0.007522573735923459,nan,nan,nan,nan,nan,nan,8.983571290969849,8.983571290969849,0.0067942142486572266,-1.1922097,-0.957233,0.0,-3.0,0.7307280191133225,-0.023268042410001518,0.013610175156804365,-0.05149547923563036,nan,nan,nan,nan
19.101889610290527,-1.0838804,-0.62815285,-3.0875533,0.006989770648249821,nan,nan,nan,nan,nan,nan,9.100489616394043,9.100489616394043,0.006690502166748047,-1.0711341,-0.9045649,0.0,-3.0,0.729626559648538,-0.04613603731883351,0.02695910500424063,-0.05560281790089561,nan,nan,nan,nan
19.197468996047974,-1.0062114,-0.5849236,-3.0894625,0.0059748045841730504,nan,nan,nan,nan,nan,nan,9.196045875549316,9.196045875549316,0.006591081619262695,-0.9678587,-0.84698,0.0,-3.0,0.7302825827670006,-0.023619068436027665,-0.00022090264266625426,-0.061082684552945556,nan,nan,nan,nan
19.294174432754517,-0.88305765,-0.50904065,-3.0917563,0.003661029836123847,nan,nan,nan,nan,nan,nan,9.2927725315094,9.2927725315094,0.00691986083984375,-0.8597677,-0.7762707,0.0,-3.0,0.7280160464154384,-0.07357702801268245,0.050951058433438466,-0.05992579874187524,nan,nan,nan,nan
19.39281702041626,-0.7880804,-0.44618365,-3.0927372,0.0013187477029826464,nan,nan,nan,nan,nan,nan,9.391401052474976,9.391401052474976,0.0065462589263916016,-0.74628526,-0.69238406,0.0,-3.0,0.7272985341217555,-0.09219275273178308,0.07014559715037806,-0.05596006465075549,nan,nan,nan,nan
19.484663009643555,-0.7074184,-0.3909442,-3.0931685,-0.0009903237071503188,nan,nan,nan,nan,nan,nan,9.483250617980957,9.483250617980957,0.00691533088684082,-0.6380171,-0.6046819,0.0,-3.0,0.728549541871036,-0.05974468472375569,0.03224961754628117,-0.05898921684964079,nan,nan,nan,nan
19.59980797767639,-0.53924835,-0.27175552,-3.0929193,-0.00647148478880178,nan,nan,nan,nan,nan,nan,9.598541021347046,9.598541021347046,0.0067806243896484375,-0.49915537,-0.4833595,0.0,-3.0,0.7277202743744356,-0.0899829233325389,0.06429529949837058,-0.04645527458877202,nan,nan,nan,nan
19.693456888198853,-0.4522508,-0.20842572,-3.0924852,-0.009517622201873945,nan,nan,nan,nan,nan,nan,9.692034006118774,9.692034006118774,0.006654500961303711,-0.38459095,-0.37741336,0.0,-3.0,0.7274129859973298,-0.10461919155591294,0.07687998305665299,-0.03850321616101392,nan,nan,nan,nan
19.786212682724,-0.34401095,-0.12846673,-3.0918052,-0.013224646056440512,nan,nan,nan,nan,nan,nan,9.784765481948853,9.784765481948853,0.00874471664428711,-0.269648,-0.267186,0.0,-3.0,0.7276510617381488,-0.1002802709153611,0.06202364126937504,-0.03464534660130536,nan,nan,nan,nan
19.900135040283203,-0.20406245,-0.023826705,-3.0909479,-0.017758603248391527,nan,nan,nan,nan,nan,nan,9.898763656616211,9.898763656616211,0.00735163688659668,-0.12713157,-0.12687446,0.0,-3.0,0.7281075856065986,-0.0962004387030972,0.03514501592073951,-0.017217959378560223,nan,nan,nan,nan
19.99470090866089,-0.08253321,0.066964075,-3.0904653,-0.021453585476115297,nan,nan,nan,nan,nan,nan,9.993427991867065,9.993427991867065,0.006536722183227539,-0.008258605,-0.0082585355,0.0,-3.0,0.7274487573475936,-0.11541198610134301,0.04390122828217699,-0.0034860468025529334,nan,nan,nan,nan
20.088305711746216,0.060151473,0.17237948,-3.0896173,-0.024999808924510123,nan,nan,nan,nan,nan,nan,10.086977481842041,10.086977481842041,0.0069501399993896484,0.10924473,0.10908164,0.0,-3.0,0.7273366894175753,-0.12277994062807464,0.0368925555322445,0.0092173948516154,nan,nan,nan,nan
20.203880071640015,0.17171973,0.25353038,-3.088374,-0.027052325650180606,nan,nan,nan,nan,nan,nan,10.202501058578491,10.202501058578491,0.006433248519897461,0.2537843,0.25173283,0.0,-3.0,0.7274533826168619,-0.13320081197228162,0.03347986531821253,0.02276272396394786,nan,nan,nan,nan
20.29656958580017,0.28237212,0.3317571,-3.0868757,-0.028360533697023262,nan,nan,nan,nan,nan,nan,10.29512071609497,10.29512071609497,0.0065157413482666016,0.368738,0.36241674,0.0,-3.0,0.7277605333932444,-0.13942571354548247,0.039116837912759564,0.030214494844808697,nan,nan,nan,nan
20.39185333251953,0.41098368,0.41906318,-3.0848327,-0.0288939934715958,nan,nan,nan,nan,nan,nan,10.391052007675171,10.391052007675171,0.007141828536987305,0.48648086,0.47186992,0.0,-3.0,0.728274641020347,-0.13865875815688616,0.04116654264790368,0.03621550406376157,nan,nan,nan,nan
20.49080729484558,0.51742965,0.4876015,-3.0835145,-0.028527630427019238,nan,nan,nan,nan,nan,nan,10.489513397216797,10.489513397216797,0.007761240005493164,0.60548776,0.5770734,0.0,-3.0,0.7287684534099885,-0.13489488846660022,0.033243614600954235,0.042449295545558915,nan,nan,nan,nan
20.593174934387207,0.6495436,0.56660473,-3.0827243,-0.027100804763972735,nan,nan,nan,nan,nan,nan,10.59173583984375,10.59173583984375,0.006296396255493164,0.7265834,0.67693996,0.0,-3.0,0.7291673711436262,-0.12237379382908271,0.033577120996733434,0.04512952255354502,nan,nan,nan,nan
20.69243335723877,0.7500314,0.620495,-3.0825374,-0.025316520332106577,nan,nan,nan,nan,nan,nan,10.691057682037354,10.691057682037354,0.00670313835144043,0.84137744,0.76330185,0.0,-3.0,0.7293371767695523,-0.11938978951684032,0.01990027787972901,0.04927173915041567,nan,nan,nan,nan
20.78875231742859,0.8651577,0.6736677,-3.082148,-0.022631733858417658,nan,nan,nan,nan,nan,nan,10.787359476089478,10.787359476089478,0.006561994552612305,0.94955736,0.8357104,0.0,-3.0,0.7296665450995858,-0.10812002934254124,0.017577919887089132,0.04970411916022245,nan,nan,nan,nan
20.89292573928833,0.9673291,0.7124482,-3.0816216,-0.019690687192400906,nan,nan,nan,nan,nan,nan,10.891854524612427,10.891854524612427,0.006451606750488281,1.0629971,0.9004215,0.0,-3.0,0.7301708521980719,-0.0884652133349884,0.02257178332903176,0.047103246107546674,nan,nan,nan,nan
20.99180555343628,1.064986,0.7404625,-3.0811217,-0.01653393797810642,nan,nan,nan,nan,nan,nan,10.990306377410889,10.990306377410889,0.006039619445800781,1.1656939,0.9472218,0.0,-3.0,0.7307720121752097,-0.08226473574690847,0.019519922849131986,0.04709642025048488,nan,nan,nan,nan
21.088561534881592,1.1576059,0.7574807,-3.0807607,-0.013188766369281513,nan,nan,nan,nan,nan,nan,11.088305473327637,11.088305473327637,0.014052391052246094,1.2634903,0.9794276,0.0,-3.0,0.7313290072098344,-0.07783637246248046,0.016848462436924845,0.046386470374086344,nan,nan,nan,nan
21.181776523590088,1.2446668,0.7629508,-3.0802722,-0.009757701307670473,nan,nan,nan,nan,nan,nan,11.18039870262146,11.18039870262146,0.0073604583740234375,1.3510351,0.9961775,0.0,-3.0,0.7319284246748317,-0.10154200932893918,0.005205486399893684,0.04888090994290981,nan,nan,nan,nan
21.2841854095459,1.344521,0.75213635,-3.079776,-0.005597375650287506,nan,nan,nan,nan,nan,nan,11.282798528671265,11.282798528671265,0.007412433624267578,1.4430553,0.99915075,0.0,-3.0,0.731480333908133,0.010888071093841963,0.032901537100233455,0.03511958300551758,nan,nan,nan,nan
21.38832974433899,1.4235303,0.7270728,-3.0785975,-0.0021367111205781927,nan,nan,nan,nan,nan,nan,11.387122869491577,11.387122869491577,0.007797956466674805,1.5306615,0.9851907,0.0,-3.0,0.7313978997985067,0.042688122786818286,0.028286198033715307,0.032516371037115084,nan,nan,nan,nan
21.5003604888916,1.5064429,0.6809581,-3.076099,0.0016644779859984402,nan,nan,nan,nan,nan,nan,11.49902892112732,11.49902892112732,0.007305622100830078,1.6173164,0.9514329,0.0,-3.0,0.731719255498557,0.055526475314285666,0.020449536405106553,0.031009211209532764,nan,nan,nan,nan
21.603647232055664,1.5664928,0.6313178,-3.0742188,0.004596837762493644,nan,nan,nan,nan,nan,nan,11.602362871170044,11.602362871170044,0.0068950653076171875,1.690245,0.9035588,0.0,-3.0,0.7316747279495834,0.08647203017487083,0.017902388613160188,0.028064660176293405,nan,nan,nan,nan
21.681538105010986,1.594637,0.60279566,-3.0734024,0.00597717813094064,nan,nan,nan,nan,nan,nan,11.680257081985474,11.680257081985474,0.007552385330200195,1.7405267,0.8573604,0.0,-3.0,0.73253965477438,0.048500305325506025,0.016720267597880843,0.03021467252801047,nan,nan,nan,nan
21.786521911621094,1.6513628,0.5330569,-3.0717008,0.008868419638518886,nan,nan,nan,nan,nan,nan,11.785166501998901,11.785166501998901,0.007101774215698242,1.801639,0.7822605,0.0,-3.0,0.7327084871370197,0.045675203591795284,0.023233582019997687,0.03001391555673342,nan,nan,nan,nan
21.900526523590088,1.705867,0.44739485,-3.0702546,0.011690193259527942,nan,nan,nan,nan,nan,nan,11.899219512939453,11.899219512939453,0.007576704025268555,1.8591917,0.6852617,0.0,-3.0,0.7326183437533164,0.04099899641364569,0.034957855292035434,0.02964483304305573,nan,nan,nan,nan
21.978560209274292,1.7468702,0.36761263,-3.0690181,0.013867634633838354,nan,nan,nan,nan,nan,nan,11.977285861968994,11.977285861968994,0.007555723190307617,1.8930992,0.6106348,0.0,-3.0,0.7308427535263324,0.11503006676796154,0.03287942822978835,0.021287999803740236,nan,nan,nan,nan
22.08709740638733,1.7820213,0.2832799,-3.0680714,0.015704768319887815,nan,nan,nan,nan,nan,nan,12.085707664489746,12.085707664489746,0.007133960723876953,1.9326217,0.49741384,0.0,-3.0,0.7315555870989139,0.074920104293579,0.046855487626541195,0.02327419776716579,nan,nan,nan,nan
22.17719292640686,1.8165889,0.1734595,-3.067341,0.017548906930561325,nan,nan,nan,nan,nan,nan,12.176629304885864,12.176629304885864,0.007046699523925781,1.9588598,0.395268,0.0,-3.0,0.7305313000003355,0.1120346437633168,0.03430393666289692,0.014603253193540324,nan,nan,nan,nan
22.299434900283813,1.8405477,0.06057992,-3.0668912,0.018929687689416164,nan,nan,nan,nan,nan,nan,12.29867434501648,12.29867434501648,0.007058858871459961,1.9840199,0.25030306,0.0,-3.0,0.730051556391548,0.11740155058848441,0.021502505904614142,0.007164014814914342,nan,nan,nan,nan
22.38156533241272,1.8470674,0.014925589,-3.0667686,0.0193784374389016,nan,nan,nan,nan,nan,nan,12.380195379257202,12.380195379257202,0.007058858871459961,1.9943362,0.14998285,0.0,-3.0,0.7301576295517387,0.0976593557958553,0.02588773042900836,0.0025935569788466573,nan,nan,nan,nan
22.503485918045044,1.8565016,-0.11420579,-3.0668972,0.020233620794301074,nan,nan,nan,nan,nan,nan,12.502086639404297,12.502086639404297,0.006671428680419922,1.9999983,-0.0026221455,0.0,-3.0,0.7295207141562475,0.11924006145678234,0.004420475417337105,-0.004059973140517934,nan,nan,nan,nan
22.586912155151367,1.8562466,-0.1738977,-3.067016,0.02034381309133921,nan,nan,nan,nan,nan,nan,12.585553646087646,12.585553646087646,0.007081270217895508,1.9971111,-0.1073029,0.0,-3.0,0.730032896039299,0.09462841273484024,0.037674771380630336,-0.0005752873275712058,nan,nan,nan,nan
22.69069242477417,1.8461266,-0.28952137,-3.0679195,0.01991555619156429,nan,nan,nan,nan,nan,nan,12.689603090286255,12.689603090286255,0.0068509578704833984,1.9858246,-0.23601435,0.0,-3.0,0.7292102713430074,0.11917850524073806,-0.004153278096818734,-0.009478872376655761,nan,nan,nan,nan
22.79036569595337,1.8320262,-0.36541316,-3.0688796,0.019196821811212822,nan,nan,nan,nan,nan,nan,12.788921594619751,12.788921594619751,0.006425619125366211,1.9671355,-0.3551454,0.0,-3.0,0.7291339597167206,0.12224069726927148,-0.003222232658557136,-0.007677564957539995,nan,nan,nan,nan
22.88717007637024,1.8141643,-0.43097875,-3.0699074,0.018335983223545342,nan,nan,nan,nan,nan,nan,12.885756254196167,12.885756254196167,0.007067680358886719,1.94154,-0.46599212,0.0,-3.0,0.7292132028253857,0.11929448416213669,0.018891506500434946,-0.005287434696236874,nan,nan,nan,nan
22.99031925201416,1.783491,-0.50998193,-3.0711923,0.016942023727547422,nan,nan,nan,nan,nan,nan,12.989090919494629,12.989090919494629,0.007504701614379883,1.9063046,-0.5766398,0.0,-3.0,0.7293263162793425,0.12093643234628713,0.023604051820129122,-0.0025158720362939294,nan,nan,nan,nan
23.096670389175415,1.7475832,-0.5755315,-3.0726361,0.015541229842653347,nan,nan,nan,nan,nan,nan,13.095487117767334,13.095487117767334,0.007471323013305664,1.8616332,-0.6804021,0.0,-3.0,0.7294977507217779,0.11878432619334688,0.023004383830762837,-0.0004633376601943031,nan,nan,nan,nan
23.20368242263794,1.6974419,-0.64154506,-3.0744016,0.013847399672345218,nan,nan,nan,nan,nan,nan,13.202330589294434,13.202330589294434,0.007199525833129883,1.8084052,-0.7723768,0.0,-3.0,0.7295395215912349,0.10666946296193883,0.010128993021699503,-0.00020093703008623758,nan,nan,nan,nan
23.28261923789978,1.643553,-0.69145256,-3.0758858,0.012246087962597282,nan,nan,nan,nan,nan,nan,13.281521797180176,13.281521797180176,0.00835728645324707,1.7636815,-0.8316593,0.0,-3.0,0.7295016731030418,0.08461950653703106,-0.019847252316622755,-0.0012185567389889945,nan,nan,nan,nan
23.38497495651245,1.5878943,-0.72646856,-3.0771868,0.010843346372269504,nan,nan,nan,nan,nan,nan,13.383639574050903,13.383639574050903,0.008133649826049805,1.6995826,-0.8958828,0.0,-3.0,0.7297293633637626,0.06510020942596288,-0.022700434530414412,0.0017316552406733182,nan,nan,nan,nan
23.4861056804657,1.52184,-0.7519066,-3.0783412,0.00952001460853897,nan,nan,nan,nan,nan,nan,13.484688520431519,13.484688520431519,0.0070149898529052734,1.6292685,-0.944935,0.0,-3.0,0.7301620338544904,0.0507343877094098,-0.01615287559756908,0.0058377986458116185,nan,nan,nan,nan
23.60305619239807,1.4672961,-0.762179,-3.079165,0.008644522855766355,nan,nan,nan,nan,nan,nan,13.601624488830566,13.601624488830566,0.006489753723144531,1.5397245,-0.98266774,0.0,-3.0,0.7307822552456692,0.04039947628685212,0.002092515257855865,0.010060262114348842,nan,nan,nan,nan
23.70236873626709,1.3913811,-0.763737,-3.0796244,0.007706903975844219,nan,nan,nan,nan,nan,nan,13.70058274269104,13.70058274269104,0.0033180713653564453,1.4574358,-0.99807245,0.0,-3.0,0.7306727894655217,0.002856635937779101,-0.012994893290010965,0.011766118268358255,nan,nan,nan,nan
23.792433738708496,1.3097013,-0.75241196,-3.0798619,0.007227637677972708,nan,nan,nan,nan,nan,nan,13.790500402450562,13.790500402450562,0.002007722854614258,1.3777719,-0.99870515,0.0,-3.0,0.7308861618715392,-0.014359753760825596,-0.017705398853398002,0.014794609117288119,nan,nan,nan,nan
23.892295360565186,1.2299176,-0.7310984,-3.0801485,0.007059191776329195,nan,nan,nan,nan,nan,nan,13.890358924865723,13.890358924865723,0.0022134780883789062,1.2841595,-0.98448527,0.0,-3.0,0.7312770998880789,-0.014517617846127503,-0.008502926803152464,0.017603091852132543,nan,nan,nan,nan
23.992326974868774,1.1389658,-0.6960954,-3.0802588,0.007201934477696778,nan,nan,nan,nan,nan,nan,13.990421295166016,13.990421295166016,0.002189159393310547,1.1852872,-0.95470715,0.0,-3.0,0.7313470195220333,-0.01747697195795846,-0.004107482220163026,0.01904181511452088,nan,nan,nan,nan
24.098838567733765,1.0435535,-0.6494652,-3.080381,0.0077661006838085495,nan,nan,nan,nan,nan,nan,14.09710431098938,14.09710431098938,0.003384828567504883,1.0747242,-0.9063704,0.0,-3.0,0.7309909764618786,-0.028173828312169736,-0.008158272689437808,0.019044276957483817,nan,nan,nan,nan
24.19373083114624,0.9514606,-0.5969326,-3.0806382,0.008779331326273537,nan,nan,nan,nan,nan,nan,14.191905736923218,14.191905736923218,0.0031065940856933594,0.97240824,-0.84973437,0.0,-3.0,0.7310352723178796,-0.026371750582748817,-3.321841891999186e-05,0.020478110299468805,nan,nan,nan,nan
24.28771948814392,0.85540295,-0.53572696,-3.081205,0.010066134705929201,nan,nan,nan,nan,nan,nan,14.285911798477173,14.285911798477173,0.005552768707275391,0.8675439,-0.7816767,0.0,-3.0,0.7298870671056095,-0.061764704700247024,-0.028793881654346914,0.020807267060191082,nan,nan,nan,nan
24.398298978805542,0.7392102,-0.4546654,-3.0822258,0.01174429474055555,nan,nan,nan,nan,nan,nan,14.396714210510254,14.396714210510254,0.004857540130615234,0.7400866,-0.6875512,0.0,-3.0,0.7296296691770562,-0.06651108193976951,-0.023530163993671693,0.020714732065627336,nan,nan,nan,nan
24.49043369293213,0.645336,-0.38427147,-3.082941,0.013159797165670999,nan,nan,nan,nan,nan,nan,14.488819599151611,14.488819599151611,0.004749298095703125,0.6313807,-0.5990933,0.0,-3.0,0.7284797589047952,-0.09850119898870086,-0.044362916345396214,0.021088620745201594,nan,nan,nan,nan
24.591155767440796,0.5140692,-0.2805739,-3.0834708,0.015151696959155622,nan,nan,nan,nan,nan,nan,14.58991551399231,14.58991551399231,0.007386445999145508,0.5096441,-0.49281973,0.0,-3.0,0.7287052018811049,-0.09759390051030042,-0.029956549117948122,0.018618189271739066,nan,nan,nan,nan
24.703495502471924,0.3975856,-0.18524759,-3.083537,0.017074729030822914,nan,nan,nan,nan,nan,nan,14.70216679573059,14.70216679573059,0.00761866569519043,0.37208763,-0.36559153,0.0,-3.0,0.7274273197434276,-0.13645142611882277,-0.05777838750378676,0.017764539417322592,nan,nan,nan,nan
24.784845113754272,0.33379564,-0.1322071,-3.0833027,0.01803461189521279,nan,nan,nan,nan,nan,nan,14.783499002456665,14.783499002456665,0.007294893264770508,0.2712249,-0.2687193,0.0,-3.0,0.7285143511204006,-0.1091702430741898,-0.01440765824149769,0.015774172504287937,nan,nan,nan,nan
24.89804768562317,0.20437594,-0.02364011,-3.083078,0.019980614465898015,nan,nan,nan,nan,nan,nan,14.896719694137573,14.896719694137573,0.007588386535644531,0.12969479,-0.1294218,0.0,-3.0,0.7279033812358066,-0.12812694605535066,-0.02533003354259036,0.010609508257988757,nan,nan,nan,nan
24.97931933403015,0.082437836,0.07904614,-3.083245,0.02160861235455244,nan,nan,nan,nan,nan,nan,14.978015184402466,14.978015184402466,0.007455348968505859,0.027626056,-0.02762342,0.0,-3.0,0.7268696325740128,-0.1564995539952811,-0.05972133711722029,0.006831993097061518,nan,nan,nan,nan
25.086320638656616,-0.040656794,0.18151574,-3.0830405,0.023033991622808066,nan,nan,nan,nan,nan,nan,15.085049629211426,15.085049629211426,0.007419109344482422,-0.10682566,0.106673166,0.0,-3.0,0.7265614190201071,-0.1595535262146276,-0.06644335538557335,0.0008154936461653483,nan,nan,nan,nan
25.1880841255188,-0.16466783,0.28086686,-3.0827048,0.024176907169163164,nan,nan,nan,nan,nan,nan,15.186880111694336,15.186880111694336,0.007009267807006836,-0.2343012,0.23268785,0.0,-3.0,0.7267744823771313,-0.15284720947844838,-0.06166543374744202,-0.006018611934222432,nan,nan,nan,nan
25.290716409683228,-0.27899542,0.36753294,-3.0824783,0.024901920659234217,nan,nan,nan,nan,nan,nan,15.289336442947388,15.289336442947388,0.007414102554321289,-0.36159146,0.35563266,0.0,-3.0,0.7271147505951837,-0.14255986860577466,-0.06529210001857483,-0.01198025446325912,nan,nan,nan,nan
25.379682302474976,-0.3548087,0.42218167,-3.082405,0.025178616482606074,nan,nan,nan,nan,nan,nan,15.378413438796997,15.378413438796997,0.007113456726074219,-0.47106057,0.45780826,0.0,-3.0,0.7273444838295986,-0.12981588478802725,-0.021257908920335293,-0.024007336226733247,nan,nan,nan,nan
25.503612518310547,-0.541899,0.5444926,-3.0821767,0.024839287237723735,nan,nan,nan,nan,nan,nan,15.50218653678894,15.50218653678894,0.009729385375976562,-0.6206466,0.59000593,0.0,-3.0,0.7278846453725051,-0.11066589912138754,-0.05979475864648788,-0.025421423437157413,nan,nan,nan,nan
25.600000858306885,-0.6062436,0.58138525,-3.0818725,0.024398404961695916,nan,nan,nan,nan,nan,nan,15.59945011138916,15.59945011138916,0.01081228256225586,-0.73560655,0.6840432,0.0,-3.0,0.7280727186947794,-0.10638574243702263,-0.030824748083740788,-0.0350259549958613,nan,nan,nan,nan
25.695765495300293,-0.7417824,0.6495733,-3.0808368,0.02282126070066043,nan,nan,nan,nan,nan,nan,15.694557905197144,15.694557905197144,0.006888151168823242,-0.84536576,0.7661361,0.0,-3.0,0.729179522986596,-0.07836540573892074,-0.06561222013358542,-0.03265161365671681,nan,nan,nan,nan
25.79505681991577,-0.8562913,0.6959365,-3.0795867,0.02080549694790089,nan,nan,nan,nan,nan,nan,15.79383111000061,15.79383111000061,0.0070133209228515625,-0.95670694,0.84014887,0.0,-3.0,0.7297254037094878,-0.05170882089083231,-0.07209671127864813,-0.034205987721121725,nan,nan,nan,nan
25.893868684768677,-0.95847374,0.7279001,-3.0783718,0.01850536123198858,nan,nan,nan,nan,nan,nan,15.892722368240356,15.892722368240356,0.012357234954833984,-1.0639207,0.90089536,0.0,-3.0,0.7303294397862425,-0.03997904673190937,-0.06673424526022995,-0.03791144989071212,nan,nan,nan,nan
25.9804470539093,-1.0242842,0.7436082,-3.0773242,0.01673089009326314,nan,nan,nan,nan,nan,nan,15.979222536087036,15.979222536087036,0.007345676422119141,-1.1543477,0.9426649,0.0,-3.0,0.7308009344550996,-0.0721041183329069,-0.03512934754879336,-0.047943428418966455,nan,nan,nan,nan
26.08101463317871,-1.1421825,0.76132095,-3.0750334,0.012780549192537578,nan,nan,nan,nan,nan,nan,16.07984709739685,16.07984709739685,0.008828401565551758,-1.2552332,0.9772274,0.0,-3.0,0.73153038920418,-0.026296963225959483,-0.05300203769470211,-0.04083791549149712,nan,nan,nan,nan
26.186379194259644,-1.2310888,0.7642738,-3.073284,0.009261443257585183,nan,nan,nan,nan,nan,nan,16.185360431671143,16.185360431671143,0.008147954940795898,-1.3556259,0.9967028,0.0,-3.0,0.7322974747622076,-0.03193833911149846,-0.04464221271901545,-0.04133335966974667,nan,nan,nan,nan
26.301763772964478,-1.3085452,0.75748533,-3.0719278,0.00571629532744445,nan,nan,nan,nan,nan,nan,16.30048155784607,16.30048155784607,0.007153749465942383,-1.4583515,0.9979885,0.0,-3.0,0.7331480543074675,-0.06599628448919438,-0.02757127568787171,-0.045667373144645085,nan,nan,nan,nan
26.400635957717896,-1.3942769,0.7369879,-3.0708795,0.0013027970806929398,nan,nan,nan,nan,nan,nan,16.399959802627563,16.399959802627563,0.006658792495727539,-1.5409943,0.9822967,0.0,-3.0,0.7332516503805991,-0.03882056760590924,-0.03216006728397168,-0.040791215797583054,nan,nan,nan,nan
26.505558490753174,-1.4670718,0.70626676,-3.0701976,-0.0028530003737262596,nan,nan,nan,nan,nan,nan,16.504188776016235,16.504188776016235,0.008008241653442383,-1.6211224,0.94941676,0.0,-3.0,0.733006777678911,-0.009897886482047012,-0.03539499964847759,-0.036035865652193556,nan,nan,nan,nan
26.580299615859985,-1.5386631,0.6609818,-3.0695088,-0.007140563680255625,nan,nan,nan,nan,nan,nan,16.57891345024109,16.57891345024109,0.00817251205444336,-1.6743096,0.91579044,0.0,-3.0,0.7321064077934049,0.05149801587492666,-0.037807349408353556,-0.025465483953009474,nan,nan,nan,nan
26.684890747070312,-1.5885313,0.6181479,-3.0690522,-0.010257095625972962,nan,nan,nan,nan,nan,nan,16.683516025543213,16.683516025543213,0.006947755813598633,-1.7425404,0.8552453,0.0,-3.0,0.7324255388951553,0.03764006463864581,-0.03043382846649257,-0.02527659933167033,nan,nan,nan,nan
26.784575939178467,-1.6469278,0.5535031,-3.0688102,-0.014033126478272297,nan,nan,nan,nan,nan,nan,16.783220529556274,16.783220529556274,0.006556034088134766,-1.8005759,0.7837815,0.0,-3.0,0.7322036138256512,0.04860442344511117,-0.027720397168484668,-0.020773621398291867,nan,nan,nan,nan
26.88181757926941,-1.7013886,0.47318414,-3.0691538,-0.017665497879265434,nan,nan,nan,nan,nan,nan,16.880431413650513,16.880431413650513,0.006621122360229492,-1.8503603,0.70226413,0.0,-3.0,0.7314015957896599,0.06929170776961849,-0.02444934639395792,-0.014341159935199148,nan,nan,nan,nan
26.995249271392822,-1.7408336,0.39594808,-3.0700078,-0.020377572862279505,nan,nan,nan,nan,nan,nan,16.994511127471924,16.994511127471924,0.007115364074707031,-1.8999703,0.5933514,0.0,-3.0,0.7321296572125928,0.028796788006851204,-0.035452905002164074,-0.015514739352393923,nan,nan,nan,nan
27.1045663356781,-1.7741008,0.31207693,-3.0715199,-0.022654928726872588,nan,nan,nan,nan,nan,nan,17.103302001953125,17.103302001953125,0.006943225860595703,-1.938194,0.47811338,0.0,-3.0,0.7301849202113745,0.0744212537608883,-0.029222358049452703,-0.007232222988106693,nan,nan,nan,nan
27.18446946144104,-1.8063238,0.20747885,-3.0733466,-0.024935472434198344,nan,nan,nan,nan,nan,nan,17.183157444000244,17.183157444000244,0.007158517837524414,-1.9604987,0.38771933,0.0,-3.0,0.7286672249377557,0.12103655571242054,-0.022136403973498642,-0.0012973169265577623,nan,nan,nan,nan
27.28854537010193,-1.8300743,0.105768174,-3.0745666,-0.026646167427825766,nan,nan,nan,nan,nan,nan,17.28722906112671,17.28722906112671,0.010730504989624023,-1.9821541,0.26420143,0.0,-3.0,0.728051621020857,0.14021621098839057,-0.025491016541213316,0.00280844368770087,nan,nan,nan,nan
27.395581245422363,-1.8470393,0.0017600915,-3.0757287,-0.027887453967055324,nan,nan,nan,nan,nan,nan,17.394599199295044,17.394599199295044,0.0073206424713134766,-1.9956158,0.13206363,0.0,-3.0,0.7276512862788849,0.16300048598439718,-0.02362412541002256,0.008064644761697982,nan,nan,nan,nan
27.488548278808594,-1.8539543,-0.06254663,-3.0763898,-0.028383450372655612,nan,nan,nan,nan,nan,nan,17.487799167633057,17.487799167633057,0.007117509841918945,-1.9999412,0.015331417,0.0,-3.0,0.7281523599761514,0.14132736526772277,-0.04492129085062991,0.004710109705957715,nan,nan,nan,nan
27.579021692276,-1.8598827,-0.18140417,-3.07758,-0.028718651544727664,nan,nan,nan,nan,nan,nan,17.577677011489868,17.577677011489868,0.011192798614501953,-1.9976184,-0.09745688,0.0,-3.0,0.7281759616901207,0.1582324291766741,-0.03130150465095976,0.011857263407296354,nan,nan,nan,nan
27.699803113937378,-1.8579959,-0.26577485,-3.0786126,-0.0285077748370021,nan,nan,nan,nan,nan,nan,17.698549270629883,17.698549270629883,0.007950544357299805,-1.984457,-0.24692371,0.0,-3.0,0.7286210157830258,0.1369623247152543,-0.04241320123229774,0.01396785339900112,nan,nan,nan,nan
27.78527855873108,-1.8473302,-0.36805344,-3.0798771,-0.027605197891743517,nan,nan,nan,nan,nan,nan,17.78406572341919,17.78406572341919,0.00735783576965332,-1.968228,-0.34943452,0.0,-3.0,0.728681679291281,0.13443423970147939,-0.0075594873670756626,0.02109390908839825,nan,nan,nan,nan
27.892314672470093,-1.8272135,-0.4625996,-3.0806415,-0.026028454881669924,nan,nan,nan,nan,nan,nan,17.89106273651123,17.89106273651123,0.0077838897705078125,-1.9399288,-0.47188178,0.0,-3.0,0.7290336490944279,0.118600967930884,0.00039923571925733225,0.022651590775635184,nan,nan,nan,nan
27.97799849510193,-1.8157789,-0.49993986,-3.080787,-0.025093706059332806,nan,nan,nan,nan,nan,nan,17.97681975364685,17.97681975364685,0.008036613464355469,-1.9109124,-0.56397325,0.0,-3.0,0.7295902711289443,0.11178529571948052,-0.026281156601182225,0.018826407523375898,nan,nan,nan,nan
28.087226629257202,-1.7823088,-0.5789998,-3.0810232,-0.022494700344303557,nan,nan,nan,nan,nan,nan,18.08610248565674,18.08610248565674,0.0073986053466796875,-1.865911,-0.6717126,0.0,-3.0,0.7303176081759347,0.1049857559216537,-0.02822757572733762,0.014461070037340727,nan,nan,nan,nan
28.197749376296997,-1.7295724,-0.65908647,-3.0811622,-0.018776266212042897,nan,nan,nan,nan,nan,nan,18.19646167755127,18.19646167755127,0.008745908737182617,-1.8115429,-0.7676714,0.0,-3.0,0.730687233726805,0.08051621264268498,0.011257009242495095,0.014080361660762635,nan,nan,nan,nan
28.302453756332397,-1.7004483,-0.69028443,-3.0812495,-0.016876101001474797,nan,nan,nan,nan,nan,nan,18.301181316375732,18.301181316375732,0.007224321365356445,-1.7518977,-0.8451224,0.0,-3.0,0.7319775183761058,0.10587845868626097,-0.04201813961496159,0.001608585674968438,nan,nan,nan,nan
28.379539966583252,-1.6469431,-0.73186296,-3.0814948,-0.01399645826582125,nan,nan,nan,nan,nan,nan,18.378266096115112,18.378266096115112,0.007203817367553711,-1.7031323,-0.8928623,0.0,-3.0,0.7314157688287526,0.06160933818910711,0.0243880821511739,0.002969344088498571,nan,nan,nan,nan
28.483732223510742,-1.6004794,-0.75583094,-3.0820017,-0.011931895096787472,nan,nan,nan,nan,nan,nan,18.48237895965576,18.48237895965576,0.006994962692260742,-1.63095,-0.9439813,0.0,-3.0,0.7323301218470759,0.07982643503878596,-0.009709127347996593,-0.008406093641318689,nan,nan,nan,nan
28.585428953170776,-1.5329818,-0.77586323,-3.0832384,-0.00944435282094689,nan,nan,nan,nan,nan,nan,18.58424210548401,18.58424210548401,0.007908344268798828,-1.553573,-0.9783844,0.0,-3.0,0.7320417566215964,0.05801327657021732,0.010592224195804268,-0.014128331930062151,nan,nan,nan,nan
28.69934606552124,-1.4454719,-0.7826027,-3.0850823,-0.006991139198390069,nan,nan,nan,nan,nan,nan,18.698160886764526,18.698160886764526,0.008032083511352539,-1.4595183,-0.99787897,0.0,-3.0,0.7322741154036747,0.061616050659229975,0.000387310799562521,-0.023286302838961947,nan,nan,nan,nan
28.788119077682495,-1.3553165,-0.77257055,-3.0864174,-0.005303553124022829,nan,nan,nan,nan,nan,nan,18.786805629730225,18.786805629730225,0.00761723518371582,-1.3811337,-0.9989306,0.0,-3.0,0.7307284941037028,0.012948300557366031,0.04399330092617126,-0.02140976381001233,nan,nan,nan,nan
28.89575433731079,-1.2650131,-0.7492743,-3.087115,-0.0043500585653138135,nan,nan,nan,nan,nan,nan,18.894619941711426,18.894619941711426,0.007687807083129883,-1.2800499,-0.98353165,0.0,-3.0,0.7305818245214964,-0.002887323746201247,0.040758985520538665,-0.027158788209915886,nan,nan,nan,nan
28.99022626876831,-1.2064892,-0.7283777,-3.0872564,-0.004097550328324373,nan,nan,nan,nan,nan,nan,18.98954963684082,18.98954963684082,0.007283926010131836,-1.1861694,-0.9550325,0.0,-3.0,0.7317560332274686,0.019559815619502385,0.004357816628408574,-0.036359573612142586,nan,nan,nan,nan
29.094416856765747,-1.0827885,-0.6716348,-3.0868492,-0.004214601644444704,nan,nan,nan,nan,nan,nan,19.093044996261597,19.093044996261597,0.007363557815551758,-1.0790226,-0.9085137,0.0,-3.0,0.7315179262310495,-0.010247524994925839,0.011336624946593953,-0.038243700344170746,nan,nan,nan,nan
29.200130939483643,-0.9678576,-0.60732645,-3.0861027,-0.005073585510641597,nan,nan,nan,nan,nan,nan,19.198920965194702,19.198920965194702,0.0072824954986572266,-0.96469533,-0.84505373,0.0,-3.0,0.7302592978167849,-0.06335865075611036,0.0453457656065715,-0.03463950121261628,nan,nan,nan,nan
29.303590297698975,-0.865357,-0.5421489,-3.0853171,-0.006332592592040269,nan,nan,nan,nan,nan,nan,19.30233669281006,19.30233669281006,0.0063288211822509766,-0.84890074,-0.7686382,0.0,-3.0,0.7292623391466515,-0.10013474756584147,0.06624823442534991,-0.034208515332569994,nan,nan,nan,nan
29.3995521068573,-0.75961363,-0.4689597,-3.0842786,-0.007870959914043747,nan,nan,nan,nan,nan,nan,19.398561000823975,19.398561000823975,0.006598234176635742,-0.7379301,-0.68586415,0.0,-3.0,0.7293957967361082,-0.10164734827738413,0.055220062453219546,-0.033672228124973405,nan,nan,nan,nan
29.497352838516235,-0.68731666,-0.41613322,-3.083534,-0.00910211546276813,nan,nan,nan,nan,nan,nan,19.49595308303833,19.49595308303833,0.006554365158081055,-0.6228686,-0.5918919,0.0,-3.0,0.7301668189762237,-0.08171199022517164,0.023929054949007475,-0.03256411514275818,nan,nan,nan,nan
29.592645168304443,-0.56702846,-0.32425427,-3.082336,-0.011328047190924229,nan,nan,nan,nan,nan,nan,19.59139919281006,19.59139919281006,0.0070607662200927734,-0.507841,-0.49119654,0.0,-3.0,0.7294028040346334,-0.09766744252720502,0.03150229860576624,-0.02890330314483615,nan,nan,nan,nan
29.689769744873047,-0.45317325,-0.2345284,-3.081458,-0.013495205920631508,nan,nan,nan,nan,nan,nan,19.688475131988525,19.688475131988525,0.007749795913696289,-0.38897872,-0.38155103,0.0,-3.0,0.7289258345090915,-0.10519610430248265,0.03188340342461669,-0.023820287377236397,nan,nan,nan,nan
29.799636840820312,-0.3277688,-0.13352916,-3.0806575,-0.015864125068886535,nan,nan,nan,nan,nan,nan,19.798367261886597,19.798367261886597,0.007074832916259766,-0.2527019,-0.25067666,0.0,-3.0,0.7284927311968608,-0.10903303432787745,0.028483241936360128,-0.016413430436957057,nan,nan,nan,nan
29.9045991897583,-0.17067744,-0.006845606,-3.0796535,-0.01864118082288984,nan,nan,nan,nan,nan,nan,19.90327548980713,19.90327548980713,0.007295370101928711,-0.1214728,-0.121248536,0.0,-3.0,0.7274030737252603,-0.13327287606123178,0.058513197405604477,-0.00845400154870134,nan,nan,nan,nan
29.98567295074463,-0.11121755,0.040633883,-3.079166,-0.01959197136381161,nan,nan,nan,nan,nan,nan,19.984588861465454,19.984588861465454,0.007795572280883789,-0.019365905,-0.019364998,0.0,-3.0,0.7280248364536157,-0.10934654557876763,0.017243455093216682,-0.0012215817114488844,nan,nan,nan,nan
30.084543466567993,0.04763461,0.1651239,-3.0778613,-0.02178795902264532,nan,nan,nan,nan,nan,nan,20.083550930023193,20.083550930023193,0.007619142532348633,0.104944974,0.1048004,0.0,-3.0,0.7276304806840364,-0.13328870500500412,0.056718572196494586,0.004953856545462295,nan,nan,nan,nan
30.18555784225464,0.1865564,0.2691952,-3.0769203,-0.023194100874918952,nan,nan,nan,nan,nan,nan,20.184931755065918,20.184931755065918,0.01245260238647461,0.2318695,0.23030597,0.0,-3.0,0.7280332177733525,-0.112733402678296,0.009966709956887762,0.012510367526950408,nan,nan,nan,nan
30.28616499900818,0.31468505,0.36062062,-3.0762708,-0.023877481168885887,nan,nan,nan,nan,nan,nan,20.28570008277893,20.28570008277893,0.01274561882019043,0.35709623,0.35135812,0.0,-3.0,0.7276849876945657,-0.13038543515595516,0.0603209406732986,0.011824088276896978,nan,nan,nan,nan
30.384048461914062,0.41201332,0.42659786,-3.0754075,-0.024071282107183435,nan,nan,nan,nan,nan,nan,20.382692098617554,20.382692098617554,0.007508993148803711,0.47628433,0.46258178,0.0,-3.0,0.7276391526899182,-0.13058150390917492,0.057149219014668,0.018871201141968164,nan,nan,nan,nan
30.486536741256714,0.5266435,0.49977317,-3.0742738,-0.02403026972324443,nan,nan,nan,nan,nan,nan,20.485154390335083,20.485154390335083,0.007090091705322266,0.6002649,0.5725912,0.0,-3.0,0.7282102568423828,-0.126663151965284,0.09198804606704557,0.020432259664693135,nan,nan,nan,nan
30.597687244415283,0.65724456,0.57463914,-3.0726051,-0.02358431674600834,nan,nan,nan,nan,nan,nan,20.59644603729248,20.59644603729248,0.0076673030853271484,0.7320948,0.68128467,0.0,-3.0,0.7291592375856564,-0.11069013632162482,0.07743180611396487,0.02958630749243292,nan,nan,nan,nan
30.704257011413574,0.78320193,0.6365654,-3.0703335,-0.022528050413143125,nan,nan,nan,nan,nan,nan,20.702913522720337,20.702913522720337,0.007071733474731445,0.85486996,0.7728418,0.0,-3.0,0.7298922185184183,-0.09609719829468727,0.049367068446741526,0.03910680043678296,nan,nan,nan,nan
30.782466888427734,0.8354472,0.65894526,-3.06934,-0.02181243882081696,nan,nan,nan,nan,nan,nan,20.781118631362915,20.781118631362915,0.00731348991394043,0.9426479,0.83137786,0.0,-3.0,0.7302133999206233,-0.08786994558284746,0.025717095777013938,0.04426507336226796,nan,nan,nan,nan
30.888312816619873,0.9448871,0.6984269,-3.06738,-0.01977988740846441,nan,nan,nan,nan,nan,nan,20.887084245681763,20.887084245681763,0.007645845413208008,1.0579146,0.8977976,0.0,-3.0,0.7309511302653385,-0.07858300626018092,0.013599001035558262,0.047763761555920464,nan,nan,nan,nan
30.997324228286743,1.049015,0.7254228,-3.0658422,-0.017046226987756714,nan,nan,nan,nan,nan,nan,20.996145009994507,20.996145009994507,0.01053762435913086,1.1716479,0.94954836,0.0,-3.0,0.731659010573414,-0.0676634934605313,0.00922220113497862,0.048785577457058936,nan,nan,nan,nan
