time,x,y,z,yaw,platform,trajectory,traj_double,traj_short,traj_spin,lookahead_time,traj_time,ref_time,comptime,x_ref,y_ref,yaw_ref,z_ref,throttle_input,p_input,q_input,r_input,cbf_term_pitch_cbf,cbf_term_roll_cbf,cbf_term_thrust_cbf,cbf_term_yaw_cbf
10.085608720779419,0.023083061,-0.02882147,-2.8512106,-0.0016629024177198675,SIM,F8_CONTRACTION,DblSpd,Not Short,NoSpin,0.0,0.07988810539245605,0.07988810539245605,0.010190248489379883,0.20044362578163016,0.1994344159981721,0.0,-3.0,0.6117468465884603,0.7162088301324416,-0.8,-0.7999999999999995,nan,nan,nan,nan
10.172250747680664,0.019589322,-0.023814661,-2.8593776,-0.0024670084931270883,nan,nan,nan,nan,nan,nan,0.16606807708740234,0.16606807708740234,0.01306772232055664,0.4143517196139317,0.40536182753200783,0.0,-3.0,0.6039950934707381,0.4343533480279613,-0.8,-0.8,nan,nan,nan,nan
10.290034294128418,0.018365683,-0.02077068,-2.8629704,-0.004600470127548352,nan,nan,nan,nan,nan,nan,0.28441452980041504,0.28441452980041504,0.01299142837524414,0.6996903671493855,0.655475204339486,0.0,-3.0,0.6150722544997898,0.1513944829530756,-0.8,-0.649417341625877,nan,nan,nan,nan
10.380458116531372,0.01827849,-0.01713989,-2.8660662,-0.008187956313078556,nan,nan,nan,nan,nan,nan,0.3746976852416992,0.3746976852416992,0.012415409088134766,0.9073039473422274,0.8085701617450478,0.0,-3.0,0.622351091742944,-0.08714268691549953,-0.7999999999999996,0.12623955466447503,nan,nan,nan,nan
10.484292030334473,0.02001597,-0.012168137,-2.8706489,-0.013103266651240973,nan,nan,nan,nan,nan,nan,0.478473424911499,0.478473424911499,0.03131532669067383,1.131376163712932,0.9329546229792003,0.0,-3.0,0.6230089170520124,-0.333145531551492,-0.8,0.7999999999999999,nan,nan,nan,nan
10.604036569595337,0.024974234,-0.0070841988,-2.8604865,-0.008291309307120177,nan,nan,nan,nan,nan,nan,0.5982708930969238,0.5982708930969238,0.009851694107055664,1.3659230891080092,0.9977444353016697,0.0,-3.0,0.6259522902156847,-0.5992758405363913,-0.8,0.8,nan,nan,nan,nan
10.689956665039062,0.04172847,-0.0050633163,-2.821565,0.024235059220176186,nan,nan,nan,nan,nan,nan,0.6839778423309326,0.6839778423309326,0.00963282585144043,1.5150480434790023,0.9890344058709026,0.0,-3.0,0.7848825102353156,-0.6025966388930916,-0.8,0.5246346215004545,nan,nan,nan,nan
10.784818649291992,0.05879857,-0.007706161,-2.802437,0.05060228973782067,nan,nan,nan,nan,nan,nan,0.7786495685577393,0.7786495685577393,0.008743762969970703,1.6592993690438098,0.9263608481804406,0.0,-3.0,0.8623307477329544,-0.55712265993147,-0.8,0.07450673718913609,nan,nan,nan,nan
10.89969778060913,0.12507738,-0.028245885,-2.7842824,0.11301572725014489,nan,nan,nan,nan,nan,nan,0.8937017917633057,0.8937017917633057,0.008217334747314453,1.8028577838518285,0.780506156331323,0.0,-3.0,0.8785971096381059,-0.13511108158625137,0.20433737317129325,0.03950321010837296,nan,nan,nan,nan
10.992763042449951,0.26232433,-0.08516278,-2.8075428,0.14338312220747812,nan,nan,nan,nan,nan,nan,0.9870245456695557,0.9870245456695557,0.009145021438598633,1.8917833157813861,0.6138508092569794,0.0,-3.0,0.773874229204792,0.39071050955670406,0.8,0.8,nan,nan,nan,nan
11.078671216964722,0.34962192,-0.12651595,-2.8312194,0.14125708005101836,nan,nan,nan,nan,nan,nan,1.0725584030151367,1.0725584030151367,0.009580373764038086,1.9504857241058449,0.4313236232970549,0.0,-3.0,0.6685336445133957,0.8,0.8,0.8,nan,nan,nan,nan
11.190310001373291,0.55140126,-0.23495689,-2.8788385,0.13511605787009295,nan,nan,nan,nan,nan,nan,1.18418288230896,1.18418288230896,0.009267091751098633,1.9931632474482386,0.16466311927516905,0.0,-3.0,0.5017670953335043,0.8,0.8,0.7999999999999999,nan,nan,nan,nan
11.30035924911499,0.76433754,-0.36586055,-2.8883998,0.14460268003380647,nan,nan,nan,nan,nan,nan,1.294173002243042,1.294173002243042,0.008926630020141602,1.9969194941066373,-0.11079094923849364,0.0,-3.0,0.51164788071982,0.799999999999997,0.7999999999999977,0.5843110639471633,nan,nan,nan,nan
11.381691932678223,0.94144034,-0.4852353,-2.851955,0.17362813818512374,nan,nan,nan,nan,nan,nan,1.3755123615264893,1.3755123615264893,0.008954763412475586,1.9751748303244385,-0.31024141803205163,0.0,-3.0,0.6562533290339491,0.8,0.8,0.430843485086362,nan,nan,nan,nan
11.482385158538818,1.144069,-0.6313351,-2.7683315,0.2340462925943277,nan,nan,nan,nan,nan,nan,1.4774529933929443,1.4774529933929443,0.012900114059448242,1.9188582567552053,-0.5410218987465719,0.0,-3.0,0.7549344926996063,0.8,0.8,-0.22116477902853468,nan,nan,nan,nan
11.60532522201538,1.2593206,-0.719351,-2.7068367,0.27994784088184405,nan,nan,nan,nan,nan,nan,1.5990808010101318,1.5990808010101318,0.008755922317504883,1.8106365323520115,-0.7690386116784257,0.0,-3.0,0.8730213226389809,0.8,0.8,-0.7999999999999999,nan,nan,nan,nan
11.68449068069458,1.3698987,-0.8116025,-2.6387131,0.3298777753452376,nan,nan,nan,nan,nan,nan,1.6784570217132568,1.6784570217132568,0.009560823440551758,1.7170450463618268,-0.8804592412530687,0.0,-3.0,0.8785971096381059,0.8,0.8,-0.7999999999999999,nan,nan,nan,nan
11.801206111907959,1.4234105,-0.87502676,-2.5871508,0.35628722119817013,nan,nan,nan,nan,nan,nan,1.795119285583496,1.795119285583496,0.009963750839233398,1.5488164601243628,-0.9799148808763845,0.0,-3.0,0.8785971096381059,0.8,0.35296899512933694,-0.7999999999999999,nan,nan,nan,nan
11.890790939331055,1.4163435,-0.88640887,-2.569941,0.3515783204043509,nan,nan,nan,nan,nan,nan,1.8847217559814453,1.8847217559814453,0.010171651840209961,1.3968314095039904,-0.9997015184099003,0.0,-3.0,0.8785971096381059,0.7999999999999996,0.01468318949238707,-0.5956974098704046,nan,nan,nan,nan
11.983115196228027,1.318081,-0.8729374,-2.545587,0.6054088402140875,nan,nan,nan,nan,nan,nan,1.9769847393035889,1.9769847393035889,0.00969243049621582,1.2218688523554948,-0.9673306027306173,0.0,-3.0,0.8785971096381059,0.5340902291840646,-0.8,-0.799999999999999,nan,nan,nan,nan
12.06546664237976,1.1489307,-0.8316294,-2.5386841,0.4464767960960193,nan,nan,nan,nan,nan,nan,2.0599427223205566,2.0599427223205566,0.014162540435791016,1.050471761694968,-0.8939059616755158,0.0,-3.0,0.8400599721219464,0.10195565075439332,-0.8,-0.8,nan,nan,nan,nan
12.181424379348755,0.9971735,-0.77924037,-2.539205,0.3104963140724076,nan,nan,nan,nan,nan,nan,2.1752817630767822,2.1752817630767822,0.010761022567749023,0.7936458255286767,-0.7284836841217027,0.0,-3.0,0.8372962513952822,-0.8,-0.8,0.8,nan,nan,nan,nan
12.30396819114685,0.65768,-0.60000795,-2.54546,0.07635716941150666,nan,nan,nan,nan,nan,nan,2.297910690307617,2.297910690307617,0.011409521102905273,0.5024640921133856,-0.48634850462711904,0.0,-3.0,0.5773379945459611,-0.8,-0.8,0.6952314327730096,nan,nan,nan,nan
12.393360614776611,0.299723,-0.32854384,-2.5210228,-0.08769153344850938,nan,nan,nan,nan,nan,nan,2.387244939804077,2.387244939804077,0.01170492172241211,0.28243709038299364,-0.2796066316802547,0.0,-3.0,0.4702307210218098,-0.7999999999999999,-0.7999999999999997,-0.7999999999999977,nan,nan,nan,nan
12.507703065872192,0.091678426,-0.14154872,-2.4731007,-0.15257432905683685,nan,nan,nan,nan,nan,nan,2.5041513442993164,2.5041513442993164,0.015062332153320312,-0.010433418879413759,0.010433276910617847,0.0,-3.0,0.4993264619289213,-0.8,-0.8,-0.8,nan,nan,nan,nan
12.601543664932251,-0.15375045,0.09651888,-2.3770099,-0.21017293988498784,nan,nan,nan,nan,nan,nan,2.5960276126861572,2.5960276126861572,0.019062280654907227,-0.24075841134863124,0.23900761191985487,0.0,-3.0,0.5973019854944662,-0.8,-0.8,-0.8,nan,nan,nan,nan
12.6846923828125,-0.45435408,0.4007481,-2.2107043,-0.2657220600776846,nan,nan,nan,nan,nan,nan,2.678480386734009,2.678480386734009,0.00949859619140625,-0.44481878872847297,0.43367757428693143,0.0,-3.0,0.7976562564773477,-0.8,-0.8,-0.8,nan,nan,nan,nan
12.792659044265747,-0.74143183,0.6906114,-2.0424428,-0.3160463405791854,nan,nan,nan,nan,nan,nan,2.7866263389587402,2.7866263389587402,0.00950765609741211,-0.7048952609795905,0.6596632163043461,0.0,-3.0,0.8785971096381059,-0.8,-0.7999999999999998,-0.799999999999998,nan,nan,nan,nan
12.890588283538818,-0.952886,0.8937762,-1.9434373,-0.356860595738625,nan,nan,nan,nan,nan,nan,2.8841865062713623,2.8841865062713623,0.006948947906494141,-0.9284917859779369,0.8223710772695799,0.0,-3.0,0.8785971096381059,-0.8,-0.8,-0.8,nan,nan,nan,nan
12.995535135269165,-1.1963729,1.101509,-1.8628273,-0.41056513245910675,nan,nan,nan,nan,nan,nan,2.989307165145874,2.989307165145874,0.0068721771240234375,-1.1537234908113612,0.9424095732616842,0.0,-3.0,0.8785971096381059,-0.8,-0.8,-0.5103578766608792,nan,nan,nan,nan
13.103354692459106,-1.3470652,1.2037817,-1.8321769,-0.44801218352171857,nan,nan,nan,nan,nan,nan,3.0972628593444824,3.0972628593444824,0.010512351989746094,-1.364071413129344,0.9975711694410878,0.0,-3.0,0.8785971096381059,-0.8,-0.708623299976203,0.4055547793305838,nan,nan,nan,nan
13.203685522079468,-1.4985937,1.266909,-1.8185971,-0.4835073530832138,nan,nan,nan,nan,nan,nan,3.1978657245635986,3.1978657245635986,0.009400367736816406,-1.537601792681231,0.9832782313872123,0.0,-3.0,0.8785971096381059,-0.37941859233702335,-0.17791489469115476,0.21341727638812713,nan,nan,nan,nan
13.30363154411316,-1.6534534,1.2291387,-1.8262928,-0.5115856014245702,nan,nan,nan,nan,nan,nan,3.298368453979492,3.298368453979492,0.00772547721862793,-1.6864551335803273,0.9065653580942873,0.0,-3.0,0.8785971096381059,0.6656157373496276,0.2602483646617923,0.3716648342073481,nan,nan,nan,nan
13.396178245544434,-1.7160863,1.1218625,-1.842654,-0.526796296758218,nan,nan,nan,nan,nan,nan,3.389902114868164,3.389902114868164,0.008797645568847656,-1.7987029537267694,0.7864404093246825,0.0,-3.0,0.8785971096381056,0.7999999999999977,0.45491876546431204,-0.7999999999999777,nan,nan,nan,nan
13.489166736602783,-1.7400094,1.0217155,-1.8592656,-0.5388140073044647,nan,nan,nan,nan,nan,nan,3.4829154014587402,3.4829154014587402,0.008547544479370117,-1.8884070459279656,0.6219706113421928,0.0,-3.0,0.8785971096381059,0.8,0.8,-0.8,nan,nan,nan,nan
13.586440324783325,-1.7500014,0.7388501,-1.9178624,-0.579325773823204,nan,nan,nan,nan,nan,nan,3.580382823944092,3.580382823944092,0.009616374969482422,-1.9547400018016272,0.4134997385962976,0.0,-3.0,0.8396889545966747,0.7999999999999999,0.7999999999999996,-0.7999999999999993,nan,nan,nan,nan
13.707333087921143,-1.7095603,0.39497268,-2.0131938,-0.6335869013750223,nan,nan,nan,nan,nan,nan,3.701153039932251,3.701153039932251,0.009247541427612305,-1.9962333224592328,0.12245765674897488,0.0,-3.0,0.7427966513129499,0.8,0.8,-0.8,nan,nan,nan,nan
13.776772499084473,-1.6870528,0.27432927,-2.050575,-0.6534973538356187,nan,nan,nan,nan,nan,nan,3.771627187728882,3.771627187728882,0.008823156356811523,-1.9992614275622869,-0.05432829014717506,0.0,-3.0,0.7047971233012787,0.8,0.8,-0.7999999999999999,nan,nan,nan,nan
13.87235140800476,-1.5868183,-0.13223778,-2.176963,-0.7221523118985008,nan,nan,nan,nan,nan,nan,3.866158962249756,3.866158962249756,0.010223865509033203,-1.9787306652346894,-0.2878100219425119,0.0,-3.0,0.6816318178432822,0.8,0.8,-0.8,nan,nan,nan,nan
13.975832462310791,-1.5299133,-0.31339067,-2.229367,-0.7532441203999589,nan,nan,nan,nan,nan,nan,3.9699127674102783,3.9699127674102783,0.011182308197021484,-1.9241151734332815,-0.5249880458128311,0.0,-3.0,0.6905906883268483,0.8,0.8,-0.7999999999999999,nan,nan,nan,nan
14.075291156768799,-1.3930475,-0.6559707,-2.321254,-0.8138546499475986,nan,nan,nan,nan,nan,nan,4.069131135940552,4.069131135940552,0.009393692016601562,-1.841317237681229,-0.718792582434679,0.0,-3.0,0.7612896315819854,0.7999999999999974,0.7999999999999939,-0.17340337543933662,nan,nan,nan,nan
14.20616364479065,-1.29272,-0.8332966,-2.373455,-0.8454412320252762,nan,nan,nan,nan,nan,nan,4.199999570846558,4.199999570846558,0.00918889045715332,-1.6886564289359787,-0.904826593228362,0.0,-3.0,0.8333346204552545,0.8,0.8,0.7999999999999998,nan,nan,nan,nan
14.298497676849365,-1.1255342,-0.999896,-2.4590147,-0.8525761767959958,nan,nan,nan,nan,nan,nan,4.292382001876831,4.292382001876831,0.009263038635253906,-1.553159881828355,-0.9785198103431476,0.0,-3.0,0.8688228937246057,0.6406287422022837,0.7619728654648165,0.7999999999999976,nan,nan,nan,nan
14.400292158126831,-1.0178695,-1.0336628,-2.5111752,-0.8260897289423653,nan,nan,nan,nan,nan,nan,4.394143342971802,4.394143342971802,0.010187387466430664,-1.3797870061737911,-0.998842818433725,0.0,-3.0,0.8785971096381059,0.02335170909970556,0.3637842288876445,0.71743847349117,nan,nan,nan,nan
14.499426126480103,-0.79871446,-0.97336,-2.598216,-0.777042543890142,nan,nan,nan,nan,nan,nan,4.493367910385132,4.493367910385132,0.013299226760864258,-1.1890144274626229,-0.9560749397849649,0.0,-3.0,0.8050365267313216,-0.8,-0.8,-0.8,nan,nan,nan,nan
14.575379610061646,-0.65992635,-0.8671816,-2.6454613,-0.7750837670422529,nan,nan,nan,nan,nan,nan,4.56929612159729,4.56929612159729,0.009537458419799805,-1.0303956633006306,-0.8831225392257124,0.0,-3.0,0.6012893495680379,-0.8,-0.8,-0.7591115934780625,nan,nan,nan,nan
14.704737424850464,-0.39821273,-0.587782,-2.7019105,-0.8002440699040121,nan,nan,nan,nan,nan,nan,4.698550701141357,4.698550701141357,0.00892019271850586,-0.7396345796546139,-0.6871978164020836,0.0,-3.0,0.4218321857046892,-0.8,-0.8,-0.8,nan,nan,nan,nan
14.805222272872925,-0.24931763,-0.40807056,-2.696044,-0.8201276736343381,nan,nan,nan,nan,nan,nan,4.79896092414856,4.79896092414856,0.009050130844116211,-0.49990878753046597,-0.4840404882748537,0.0,-3.0,0.47424152209404247,-0.8,-0.8,-0.8,nan,nan,nan,nan
14.907986164093018,0.014350394,-0.07729995,-2.6123464,-0.8670745028919394,nan,nan,nan,nan,nan,nan,4.903822422027588,4.903822422027588,0.00914311408996582,-0.24113257009288985,-0.2393735752646606,0.0,-3.0,0.6361025698617027,-0.8,-0.8,-0.7999999999999999,nan,nan,nan,nan
14.972972869873047,0.1633782,0.11100229,-2.5380948,-0.901200548437683,nan,nan,nan,nan,nan,nan,4.967818737030029,4.967818737030029,0.009489059448242188,-0.08085829188631254,-0.08079218278165984,0.0,-3.0,0.7229919791255015,-0.8,-0.8,-0.7999999999999998,nan,nan,nan,nan
15.083981275558472,0.28012627,0.25619435,-2.4763422,-0.9314202045618726,nan,nan,nan,nan,nan,nan,5.0783398151397705,5.0783398151397705,0.011685371398925781,0.19657156312736082,0.19561980906775253,0.0,-3.0,0.8061493153429395,-0.8,-0.8,-0.8,nan,nan,nan,nan
15.184611082077026,0.58260447,0.60532534,-2.3386767,-1.0206419488539817,nan,nan,nan,nan,nan,nan,5.1785736083984375,5.1785736083984375,0.010080814361572266,0.44504720905626904,0.43388867507152457,0.0,-3.0,0.8785971096381059,-0.7999999999999999,-0.7999999999999999,-0.5267441090749765,nan,nan,nan,nan
15.29490065574646,0.732251,0.7543438,-2.295731,-1.067863201753167,nan,nan,nan,nan,nan,nan,5.288849592208862,5.288849592208862,0.008513212203979492,0.7101215974545064,0.6638523543854721,0.0,-3.0,0.8785971096381049,-0.799999999999995,-0.7999999999999913,0.5128821261104153,nan,nan,nan,nan
15.387874603271484,0.9711975,0.9421143,-2.2684436,-1.1322336145539815,nan,nan,nan,nan,nan,nan,5.381656169891357,5.381656169891357,0.008012533187866211,0.9228545150317534,0.8187362657610644,0.0,-3.0,0.8785971096381058,-0.7999999999999967,-0.7999999999999852,0.7999999999999922,nan,nan,nan,nan
15.507323980331421,1.1736228,1.0309314,-2.2781806,-1.1489123091962514,nan,nan,nan,nan,nan,nan,5.5011961460113525,5.5011961460113525,0.007991790771484375,1.178001277171242,0.9519811974342702,0.0,-3.0,0.8785971096381059,-0.5178349871134783,-0.27143734240019257,0.8,nan,nan,nan,nan
15.592580795288086,1.326348,1.0342597,-2.2947114,-1.1340940282555565,nan,nan,nan,nan,nan,nan,5.587878227233887,5.587878227233887,0.008147716522216797,1.3467279599318411,0.9956509730863817,0.0,-3.0,0.8785971096381059,-0.32428756925440827,0.03903048816325848,0.8,nan,nan,nan,nan
15.698972940444946,1.415021,0.9964656,-2.308208,-1.1195046185775606,nan,nan,nan,nan,nan,nan,5.692829608917236,5.692829608917236,0.011310338973999023,1.5294769643698323,0.9855043957553532,0.0,-3.0,0.8785971096381059,-0.028511856224042526,0.7795795915269859,0.8,nan,nan,nan,nan
15.79750108718872,1.5586973,0.8075041,-2.3529515,-1.095689762389843,nan,nan,nan,nan,nan,nan,5.791343450546265,5.791343450546265,0.010407447814941406,1.6768985705324568,0.9138755608572139,0.0,-3.0,0.7992670391522602,0.0908713496599046,0.8,0.8,nan,nan,nan,nan
15.889798164367676,1.5982641,0.6925605,-2.3797195,-1.0818675779326203,nan,nan,nan,nan,nan,nan,5.8836610317230225,5.8836610317230225,0.010187864303588867,1.7917895682788514,0.7960317025915172,0.0,-3.0,0.7532106283771686,0.20536752475783254,0.8,0.8,nan,nan,nan,nan
16.004611253738403,1.6461133,0.33301568,-2.4501927,-1.035978358012395,nan,nan,nan,nan,nan,nan,5.998438596725464,5.998438596725464,0.008873939514160156,1.9008967167598039,0.5909554906724526,0.0,-3.0,0.6879823508449417,0.6958309293971482,0.8,0.8,nan,nan,nan,nan
16.08700942993164,1.6453885,0.17870592,-2.4715908,-1.0143095288152462,nan,nan,nan,nan,nan,nan,6.080774784088135,6.080774784088135,0.010115623474121094,1.9549481504213853,0.41260259738820687,0.0,-3.0,0.6491085736721481,0.8,0.8,0.8,nan,nan,nan,nan
16.199054479599,1.6090728,-0.20281164,-2.496435,-0.9491483315947224,nan,nan,nan,nan,nan,nan,6.192877292633057,6.192877292633057,0.009070873260498047,1.9948494832675976,0.14307236247652186,0.0,-3.0,0.6660116859898086,0.7999999999999997,0.7999999999999997,0.7999999999999264,nan,nan,nan,nan
16.28307032585144,1.5816813,-0.3564261,-2.49547,-0.9163903495725432,nan,nan,nan,nan,nan,nan,6.276854991912842,6.276854991912842,0.009232759475708008,1.998861249546744,-0.06744272386985302,0.0,-3.0,0.7196174325859288,0.7999999999999999,0.8,0.7942132291521063,nan,nan,nan,nan
16.39655375480652,1.5060335,-0.6443033,-2.4850304,-0.8418062494515658,nan,nan,nan,nan,nan,nan,6.390582084655762,6.390582084655762,0.008569717407226562,1.9688720943561349,-0.34601586360067277,0.0,-3.0,0.7927143179615864,0.7999999999999882,0.7999999999999834,0.5258839649779871,nan,nan,nan,nan
16.471964120864868,1.4577615,-0.77288073,-2.480938,-0.8015777738747321,nan,nan,nan,nan,nan,nan,6.467872619628906,6.467872619628906,0.016467571258544922,1.9255078554379796,-0.5206171413327122,0.0,-3.0,0.8318202611829643,0.8,0.8,0.4607085685013239,nan,nan,nan,nan
16.590559244155884,1.3294476,-0.9947567,-2.486766,-0.7146974532980266,nan,nan,nan,nan,nan,nan,6.585592031478882,6.585592031478882,0.017920732498168945,1.8247746254579211,-0.7469313032811999,0.0,-3.0,0.8645400759980187,0.8,0.8,0.7999999999999998,nan,nan,nan,nan
16.698165893554688,1.1792295,-1.1141454,-2.51384,-0.6328318434466824,nan,nan,nan,nan,nan,nan,6.692431449890137,6.692431449890137,0.013109207153320312,1.698771734202644,-0.8965647427804557,0.0,-3.0,0.8785971096381059,0.8,0.6311473954838509,0.8,nan,nan,nan,nan
16.78952646255493,0.98809683,-1.1220737,-2.5625436,-0.5571834885723579,nan,nan,nan,nan,nan,nan,6.783251047134399,6.783251047134399,0.00801992416381836,1.5675153644619584,-0.9735316573185361,0.0,-3.0,0.8584036378795221,-0.07777473189808387,-0.7881395119979084,0.3224787683221774,nan,nan,nan,nan
16.902700185775757,0.7880765,-1.0003141,-2.6213205,-0.5435068438688738,nan,nan,nan,nan,nan,nan,6.8965067863464355,6.8965067863464355,0.009688854217529297,1.3754809101622947,-0.9985395219844833,0.0,-3.0,0.764772509961091,-0.8,-0.8,-0.10957989661132055,nan,nan,nan,nan
16.986959218978882,0.68509805,-0.8978623,-2.6524742,-0.5434947468612294,nan,nan,nan,nan,nan,nan,6.980804204940796,6.980804204940796,0.008997201919555664,1.2142551713405858,-0.9648524577215234,0.0,-3.0,0.6698834256741121,-0.8,-0.8,-0.14027960209224236,nan,nan,nan,nan
17.10095524787903,0.48160273,-0.6341421,-2.7013307,-0.5461779977709401,nan,nan,nan,nan,nan,nan,7.094760417938232,7.094760417938232,0.013164997100830078,0.9750260295116779,-0.8513105537381712,0.0,-3.0,0.5737582283763454,-0.8,-0.8,-0.7999999999999997,nan,nan,nan,nan
17.180141925811768,0.2875436,-0.32978347,-2.7101727,-0.5617185681455563,nan,nan,nan,nan,nan,nan,7.1746015548706055,7.1746015548706055,0.012151241302490234,0.7952147228301168,-0.7296537685266636,0.0,-3.0,0.5796557908611426,-0.8,-0.8,-0.8,nan,nan,nan,nan
17.303736448287964,0.14342003,-0.07973614,-2.6871035,-0.5856829648584022,nan,nan,nan,nan,nan,nan,7.297872304916382,7.297872304916382,0.009221553802490234,0.5025574703495351,-0.4864327970958589,0.0,-3.0,0.6661853190683349,-0.8,-0.7419199311247446,-0.8,nan,nan,nan,nan
17.391915321350098,-0.028707676,0.23877683,-2.634595,-0.6301923293538169,nan,nan,nan,nan,nan,nan,7.385710716247559,7.385710716247559,0.010692119598388672,0.2862538451106283,-0.2833066733429872,0.0,-3.0,0.722163311138263,-0.8,-0.5646239815967018,-0.8,nan,nan,nan,nan
17.478036642074585,-0.11015881,0.39324507,-2.6051936,-0.6576004523367779,nan,nan,nan,nan,nan,nan,7.471938848495483,7.471938848495483,0.009285688400268555,0.07051075096854625,-0.07046691697423207,0.0,-3.0,0.7629811722395602,-0.8,-0.6097548742177348,-0.8,nan,nan,nan,nan
17.59746265411377,-0.27574477,0.70025504,-2.550006,-0.7255093278135933,nan,nan,nan,nan,nan,nan,7.591727018356323,7.591727018356323,0.008964300155639648,-0.2300249754432205,0.228498540262157,0.0,-3.0,0.8277238854565999,-0.8,-0.753501802936807,-0.7999999999999999,nan,nan,nan,nan
17.69046425819397,-0.42128283,0.9386453,-2.522572,-0.7944343727841452,nan,nan,nan,nan,nan,nan,7.684681415557861,7.684681415557861,0.012194395065307617,-0.4599996661678593,0.4476673825156261,0.0,-3.0,0.8563713672496751,-0.7999999999999999,-0.6147390373132936,0.1407192672522017,nan,nan,nan,nan
17.799872398376465,-0.52245426,1.0686904,-2.5228546,-0.8405879537430174,nan,nan,nan,nan,nan,nan,7.794160842895508,7.794160842895508,0.012228250503540039,-0.7225845632725081,0.6737758686855697,0.0,-3.0,0.8774292508157855,-0.7999999999999998,-0.5355315810273069,0.7999999999999986,nan,nan,nan,nan
17.891484260559082,-0.67290604,1.1796957,-2.555446,-0.8817954437054265,nan,nan,nan,nan,nan,nan,7.885242462158203,7.885242462158203,0.008476018905639648,-0.9308415497929263,0.823878123576896,0.0,-3.0,0.8700686846212362,-0.4917137200382455,-0.24931224304685912,0.8,nan,nan,nan,nan
18.000871896743774,-0.81543803,1.1860583,-2.6003613,-0.8801396060561936,nan,nan,nan,nan,nan,nan,7.994662523269653,7.994662523269653,0.009188413619995117,-1.1646915505059936,0.9468257491248524,0.0,-3.0,0.8785971096381059,0.3178695523692789,0.04294988573641566,0.8,nan,nan,nan,nan
18.030184745788574,-0.81543803,1.1860583,-2.6003613,-0.8801396060561936,nan,nan,nan,nan,nan,nan,8.02475905418396,8.02475905418396,0.01590871810913086,-1.225335562575558,0.9684323861796058,0.0,-3.0,0.8785971096381056,0.3615323787087676,-0.02012885380406973,0.7999999999999938,nan,nan,nan,nan
18.20410680770874,-1.095609,0.9187956,-2.7144046,-0.7980774849334191,nan,nan,nan,nan,nan,nan,8.198884725570679,8.198884725570679,0.013927698135375977,-1.539238279402804,0.9828086192673401,0.0,-3.0,0.8323593566649138,0.8,0.45960109631876095,0.7307803468488341,nan,nan,nan,nan
18.297253131866455,-1.2129264,0.6895042,-2.788089,-0.7514285007689927,nan,nan,nan,nan,nan,nan,8.292595148086548,8.292595148086548,0.01695084571838379,-1.6786109245037262,0.9125938397378088,0.0,-3.0,0.4684025274089587,0.8,0.8,-0.7999999999999997,nan,nan,nan,nan
18.378344535827637,-1.2864854,0.51366454,-2.8303638,-0.7293360968421587,nan,nan,nan,nan,nan,nan,8.372246026992798,8.372246026992798,0.014091253280639648,-1.77886009300212,0.8130659323889193,0.0,-3.0,0.35267954898154985,0.7999999999999999,0.6262571760670854,-0.7999999999999992,nan,nan,nan,nan
18.46571373939514,-1.3917508,0.23893446,-2.8504143,-0.70775725709737,nan,nan,nan,nan,nan,nan,8.460129976272583,8.460129976272583,0.014915227890014648,-1.8687742876306401,0.665768158291243,0.0,-3.0,0.34913475661670346,0.8,0.30500733095635646,-0.7999999999999999,nan,nan,nan,nan
18.603660583496094,-1.4846936,-0.01316028,-2.8118222,-0.6985526783127226,nan,nan,nan,nan,nan,nan,8.598228216171265,8.598228216171265,0.015457868576049805,-1.9637352277456948,0.3722611638869716,0.0,-3.0,0.3943617481198391,0.8,-0.18725616781400065,-0.8,nan,nan,nan,nan
18.69705891609192,-1.5819461,-0.28444162,-2.7093995,-0.7032142370095122,nan,nan,nan,nan,nan,nan,8.691572666168213,8.691572666168213,0.012400627136230469,-1.9946116380807086,0.146316739103003,0.0,-3.0,0.5278201306398619,0.8,-0.2889408560842684,-0.8,nan,nan,nan,nan
18.781303882598877,-1.6575563,-0.5072352,-2.5877123,-0.7218866857300069,nan,nan,nan,nan,nan,nan,8.775164127349854,8.775164127349854,0.010287284851074219,-1.9990001213695425,-0.06320219722821384,0.0,-3.0,0.7315376704192752,0.8,-0.08252130580583719,-0.8,nan,nan,nan,nan
18.86987566947937,-1.7524312,-0.8357285,-2.3864837,-0.77317733727165,nan,nan,nan,nan,nan,nan,8.864347219467163,8.864347219467163,0.01539301872253418,-1.979387837742239,-0.2834463130063908,0.0,-3.0,0.8785971096381059,0.8,0.8,-0.8,nan,nan,nan,nan
18.96930432319641,-1.7870796,-1.0051194,-2.2926605,-0.8050787260939175,nan,nan,nan,nan,nan,nan,8.963639497756958,8.963639497756958,0.014181852340698242,-1.928357161237698,-0.5115043783293655,0.0,-3.0,0.8785971096381059,0.8,0.8,-0.8,nan,nan,nan,nan
19.088793516159058,-1.8134453,-1.3641742,-2.1367795,-0.8835786987356931,nan,nan,nan,nan,nan,nan,9.0836181640625,9.0836181640625,0.014353036880493164,-1.8267996326960838,-0.7436236373209194,0.0,-3.0,0.8785971096381059,0.8,0.8,-0.8,nan,nan,nan,nan
19.2020902633667,-1.8005763,-1.4857732,-2.0970612,-0.9147054296162502,nan,nan,nan,nan,nan,nan,9.196331977844238,9.196331977844238,0.00947713851928711,-1.6935775453627957,-0.9008635090664996,0.0,-3.0,0.8785971096381059,0.8,0.8,-0.8,nan,nan,nan,nan
19.290408849716187,-1.7244612,-1.6586512,-2.05289,-0.9732810214732215,nan,nan,nan,nan,nan,nan,9.284135341644287,9.284135341644287,0.009123563766479492,-1.5661340919264792,-0.9740372040318787,0.0,-3.0,0.8785971096381059,0.8,0.6695568170310178,-0.6901531195801976,nan,nan,nan,nan
19.397688150405884,-1.6652405,-1.6922284,-2.0458589,-0.9976541148991329,nan,nan,nan,nan,nan,nan,9.3919198513031,9.3919198513031,0.009835481643676758,-1.3838270054882973,-0.9990959814088783,0.0,-3.0,0.8785971096381059,0.8,0.5387754423132036,0.5622988669023158,nan,nan,nan,nan
19.50683879852295,-1.5209669,-1.6624571,-2.0456636,-1.0429625216369973,nan,nan,nan,nan,nan,nan,9.500687837600708,9.500687837600708,0.009529590606689453,-1.17417149815915,-0.9505208902196443,0.0,-3.0,0.8785971096381059,-0.30282604838966753,-0.5139123126046691,-0.28098705047868566,nan,nan,nan,nan
19.5797336101532,-1.4269829,-1.6025075,-2.047093,-1.0689263171697372,nan,nan,nan,nan,nan,nan,9.574367046356201,9.574367046356201,0.0185549259185791,-1.0194517656894788,-0.8770719379368886,0.0,-3.0,0.8785971096381059,-0.7999999999999999,-0.7999999999999999,-0.05118290168963191,nan,nan,nan,nan
19.681029081344604,-1.0942723,-1.2987223,-2.0509458,-1.1805370016607915,nan,nan,nan,nan,nan,nan,9.675441980361938,9.675441980361938,0.015251398086547852,-0.7932762006299872,-0.7282077707201002,0.0,-3.0,0.8064136729477067,-0.8,-0.8,-0.8,nan,nan,nan,nan
19.805266857147217,-0.8803252,-1.0737511,-2.04913,-1.2256366556066105,nan,nan,nan,nan,nan,nan,9.799102783203125,9.799102783203125,0.011560678482055664,-0.49956356603410074,-0.48372847690416465,0.0,-3.0,0.5428412243521157,-0.8,-0.8,0.8,nan,nan,nan,nan
19.874777793884277,-0.5846352,-0.75248164,-2.0122259,-1.2712848997186879,nan,nan,nan,nan,nan,nan,9.868636131286621,9.868636131286621,0.012335538864135742,-0.3286559893459018,-0.32418815875120366,0.0,-3.0,0.5042648792311362,-0.8,-0.8,0.7999999999999995,nan,nan,nan,nan
19.975706338882446,-0.3066471,-0.44803083,-1.9285326,-1.3045665175232484,nan,nan,nan,nan,nan,nan,9.96950626373291,9.96950626373291,0.0105133056640625,-0.076620363645344,-0.07656411629387366,0.0,-3.0,0.5804810042574549,-0.7999999999999999,-0.7999999999999998,-0.2881262100718999,nan,nan,nan,nan
20.06227970123291,-0.003412506,-0.11720667,-1.800364,-1.3292858344624203,nan,nan,nan,nan,nan,nan,10.056772232055664,10.056772232055664,0.0203096866607666,0.1425631760524701,0.14220052843960954,0.0,-3.0,0.7792410215554577,-0.7999999999999996,-0.7999999999999996,0.7999999999999753,nan,nan,nan,nan
20.183879852294922,0.16030112,0.059634104,-1.7299718,-1.3332311334559606,nan,nan,nan,nan,nan,nan,10.178903102874756,10.178903102874756,0.01233673095703125,0.4458545178744444,0.4346346255207417,0.0,-3.0,0.8785971096381059,-0.8,-0.8,0.8,nan,nan,nan,nan
20.304518699645996,0.66251254,0.5840213,-1.5707142,-1.3131424601626935,nan,nan,nan,nan,nan,nan,10.29884934425354,10.29884934425354,0.016141176223754883,0.7335595036384389,0.6824361323021151,0.0,-3.0,0.8785971096381059,-0.8,-0.8,0.8,nan,nan,nan,nan
20.395139932632446,0.8958467,0.8101219,-1.5396152,-1.2807081425940843,nan,nan,nan,nan,nan,nan,10.38959288597107,10.38959288597107,0.014350175857543945,0.9405049903596409,0.8300256754222827,0.0,-3.0,0.8785971096381057,-0.7999999999999953,-0.799999999999998,0.7999999999999747,nan,nan,nan,nan
20.50345277786255,1.0344745,0.9354286,-1.5355114,-1.250144992865446,nan,nan,nan,nan,nan,nan,10.49733567237854,10.49733567237854,0.010097742080688477,1.170146597799645,0.9489659745050637,0.0,-3.0,0.8785971096381059,-0.8,-0.8,0.8,nan,nan,nan,nan
20.57121205329895,1.1984805,1.0701063,-1.5463539,-1.1998958203954517,nan,nan,nan,nan,nan,nan,10.565614461898804,10.565614461898804,0.011600494384765625,1.3048382086379802,0.9888825607878856,0.0,-3.0,0.8785971096381058,-0.7999999999999828,-0.7999999999999968,0.7999999999999767,nan,nan,nan,nan
20.706555366516113,1.5067238,1.2439929,-1.6255103,-1.043309106190629,nan,nan,nan,nan,nan,nan,10.701042890548706,10.701042890548706,0.01422262191772461,1.542695894503511,0.9817927376226189,0.0,-3.0,0.8785971096381059,-0.47927231301359063,-0.7999999999999999,0.8,nan,nan,nan,nan
20.798537015914917,1.5833206,1.2512318,-1.6627464,-0.9821574864213568,nan,nan,nan,nan,nan,nan,10.792899131774902,10.792899131774902,0.0178225040435791,1.6790261552844623,0.9122812011176935,0.0,-3.0,0.8785971096381059,-0.06718387927900159,-0.19257969121821086,0.7999999999999954,nan,nan,nan,nan
20.89296793937683,1.6750737,1.203529,-1.7261168,-0.8925512795496074,nan,nan,nan,nan,nan,nan,10.887439489364624,10.887439489364624,0.014611959457397461,1.795988240461694,0.7902482140286224,0.0,-3.0,0.8785971096381059,0.2342669100864128,0.39028594687448465,0.8,nan,nan,nan,nan
20.984626531600952,1.7356784,1.0652955,-1.7982893,-0.8479561923410618,nan,nan,nan,nan,nan,nan,10.979313135147095,10.979313135147095,0.015794992446899414,1.885405829708988,0.6290342689881688,0.0,-3.0,0.8785971096381059,0.7999999999999999,0.8,0.8,nan,nan,nan,nan
21.076438188552856,1.7563637,0.8445543,-1.8737924,-0.831290253929139,nan,nan,nan,nan,nan,nan,11.070853471755981,11.070853471755981,0.010210752487182617,1.949533687200356,0.4351855306419184,0.0,-3.0,0.6266759805882006,0.8,0.8,0.7999999999999993,nan,nan,nan,nan
21.198401927947998,1.7389745,0.49565375,-1.9430969,-0.8043802709387563,nan,nan,nan,nan,nan,nan,11.192302703857422,11.192302703857422,0.009932518005371094,1.994745391203856,0.1445014553389747,0.0,-3.0,0.4458740521548386,0.8,0.8,-0.7999999999999999,nan,nan,nan,nan
21.27084732055664,1.7190939,0.29844332,-1.9488606,-0.7878166412974861,nan,nan,nan,nan,nan,nan,11.26499605178833,11.26499605178833,0.014489412307739258,1.9996448917689091,-0.0376802667803761,0.0,-3.0,0.5061281438665075,0.8,0.8,-0.8,nan,nan,nan,nan
21.39852499961853,1.6424975,-0.19756289,-1.8657699,-0.7585551469015208,nan,nan,nan,nan,nan,nan,11.39284873008728,11.39284873008728,0.008855819702148438,1.9678629524222815,-0.35135502863018975,0.0,-3.0,0.729581067860876,0.8,0.8,-0.7999999999999995,nan,nan,nan,nan
21.482802391052246,1.6031152,-0.36888662,-1.8167064,-0.7572482669205269,nan,nan,nan,nan,nan,nan,11.476772785186768,11.476772785186768,0.008695125579833984,1.9193395630659016,-0.5395833630400689,0.0,-3.0,0.8785971096381059,0.8,0.8,-0.8,nan,nan,nan,nan
21.589768886566162,1.5107175,-0.65303403,-1.7399535,-0.7722279796800973,nan,nan,nan,nan,nan,nan,11.58353567123413,11.58353567123413,0.008450508117675781,1.826884018192672,-0.7434850027683682,0.0,-3.0,0.8785971096381059,0.8,0.8,-0.8,nan,nan,nan,nan
21.696534633636475,1.3560553,-0.9535433,-1.6764785,-0.8196171507488421,nan,nan,nan,nan,nan,nan,11.690380096435547,11.690380096435547,0.009896278381347656,1.7014870772070827,-0.8942693506878,0.0,-3.0,0.8785971096381059,0.8,0.8,-0.8,nan,nan,nan,nan
21.787593126296997,1.132374,-1.2123591,-1.6471478,-0.9001561258166728,nan,nan,nan,nan,nan,nan,11.781760931015015,11.781760931015015,0.009978532791137695,1.5698385535367854,-0.9726688880825071,0.0,-3.0,0.8785971096381059,0.7999999999999999,0.6953382495165356,-0.7999999999999998,nan,nan,nan,nan
21.878479480743408,0.95198214,-1.3334023,-1.6497945,-0.9664990159517054,nan,nan,nan,nan,nan,nan,11.872366666793823,11.872366666793823,0.011835575103759766,1.4188856471813844,-0.9999780992105657,0.0,-3.0,0.8785971096381059,0.8,0.33737356451791345,-0.03133727189395327,nan,nan,nan,nan
21.992851972579956,0.74995726,-1.4037654,-1.6670547,-1.0382999114673797,nan,nan,nan,nan,nan,nan,11.987462997436523,11.987462997436523,0.017554521560668945,1.2009148180957634,-0.9603196270235035,0.0,-3.0,0.8785971096381059,0.8,0.04221697805883458,0.8,nan,nan,nan,nan
22.084864854812622,0.5096917,-1.4181408,-1.6998937,-1.1060922407026925,nan,nan,nan,nan,nan,nan,12.079315900802612,12.079315900802612,0.014569282531738281,1.0087313993205675,-0.8710296283949702,0.0,-3.0,0.8785971096381059,0.8,-0.5481175916819375,0.8,nan,nan,nan,nan
22.175389289855957,0.2613656,-1.3680102,-1.7380053,-1.1509568713321174,nan,nan,nan,nan,nan,nan,12.169779300689697,12.169779300689697,0.016183853149414062,0.8063205044505777,-0.737887596045073,0.0,-3.0,0.8785971096381059,0.8,-0.8,0.8,nan,nan,nan,nan
22.26798939704895,-0.0037797776,-1.2406822,-1.7855332,-1.1851551036981745,nan,nan,nan,nan,nan,nan,12.262458801269531,12.262458801269531,0.014702320098876953,0.5881796160246686,-0.5621690138243366,0.0,-3.0,0.8710658004025126,0.8,-0.8,0.8,nan,nan,nan,nan
22.402458667755127,-0.4203099,-0.8330539,-1.9046123,-1.2259597305817573,nan,nan,nan,nan,nan,nan,12.396940469741821,12.396940469741821,0.014439821243286133,0.2582934003861892,-0.2561303219893484,0.0,-3.0,0.7036787415471856,-0.016952579280754963,-0.8,0.8,nan,nan,nan,nan
22.495412826538086,-0.5638326,-0.59407216,-1.9593949,-1.2335077614461345,nan,nan,nan,nan,nan,nan,12.489815711975098,12.489815711975098,0.016058683395385742,0.02559520884311849,-0.025593112782546827,0.0,-3.0,0.5610396525689205,-0.7999999999999976,-0.7999999999999989,0.7999999999999338,nan,nan,nan,nan
22.58988928794861,-0.6903778,-0.3128548,-1.997957,-1.2326839728630434,nan,nan,nan,nan,nan,nan,12.584333419799805,12.584333419799805,0.015350103378295898,-0.21155648305176844,0.21036959709224556,0.0,-3.0,0.17081199240009773,-0.8,-0.8,0.8,nan,nan,nan,nan
22.679520845413208,-0.7974388,-0.029179322,-1.9839244,-1.2240232727493432,nan,nan,nan,nan,nan,nan,12.673840045928955,12.673840045928955,0.013748645782470703,-0.43344094720097287,0.42313965946359816,0.0,-3.0,-0.01,-0.8,-0.8,0.8,nan,nan,nan,nan
22.807142734527588,-0.89893454,0.24556771,-1.8900452,-1.2112055337053858,nan,nan,nan,nan,nan,nan,12.801512718200684,12.801512718200684,0.01381063461303711,-0.7397826674495859,0.6873135999194865,0.0,-3.0,0.5314073548539722,-0.8,-0.7999999999999999,-0.7999999999999684,nan,nan,nan,nan
22.895705461502075,-0.9859666,0.48681965,-1.7487221,-1.1935995618822417,nan,nan,nan,nan,nan,nan,12.889449834823608,12.889449834823608,0.0121612548828125,-0.9401876813345457,0.8298251046619265,0.0,-3.0,0.8785971096381059,-0.8,-0.8,-0.7999999999999999,nan,nan,nan,nan
22.969014167785645,-1.0867333,0.8282293,-1.5257102,-1.164235153477754,nan,nan,nan,nan,nan,nan,12.963217973709106,12.963217973709106,0.013007164001464844,-1.099553373790701,0.9184697705150714,0.0,-3.0,0.8785971096381059,-0.8,-0.8,-0.7999999999999996,nan,nan,nan,nan
23.09338927268982,-1.1328422,1.0498046,-1.3974911,-1.1450584084536963,nan,nan,nan,nan,nan,nan,13.087397813796997,13.087397813796997,0.012843847274780273,-1.3458350624300173,0.9955377626913816,0.0,-3.0,0.8785971096381059,-0.7999999999999999,-0.7999999999999999,0.28200954222358965,nan,nan,nan,nan
23.187336444854736,-1.1707948,1.2894897,-1.2729315,-1.1257607419777371,nan,nan,nan,nan,nan,nan,13.18104076385498,13.18104076385498,0.008767843246459961,-1.5102189185198198,0.990097616243379,0.0,-3.0,0.8785971096381059,-0.8,-0.8,-0.1870206024433538,nan,nan,nan,nan
23.293172121047974,-1.190631,1.4106104,-1.2083231,-1.110185086725914,nan,nan,nan,nan,nan,nan,13.286974668502808,13.286974668502808,0.009967803955078125,-1.670889482588476,0.9182781807952264,0.0,-3.0,0.8785971096381059,-0.8,-0.4304114545939457,0.40121171670240924,nan,nan,nan,nan
23.384077548980713,-1.2034022,1.449456,-1.1788155,-1.0947705482969594,nan,nan,nan,nan,nan,nan,13.377939701080322,13.377939701080322,0.010218620300292969,-1.7853550880093623,0.8046522343582413,0.0,-3.0,0.8785971096381059,-0.24409831410206748,-0.2916941311781283,0.7999999999999999,nan,nan,nan,nan
23.48564100265503,-1.2380695,1.415997,-1.1425681,-1.057892808277179,nan,nan,nan,nan,nan,nan,13.479696989059448,13.479696989059448,0.011570215225219727,-1.885727476491888,0.6282840168361735,0.0,-3.0,0.8785971096381059,0.8,0.7999999999999995,-0.17951228014837162,nan,nan,nan,nan
23.5815532207489,-1.2661538,1.3293427,-1.1330621,-1.0474736647076641,nan,nan,nan,nan,nan,nan,13.57567024230957,13.57567024230957,0.012135744094848633,-1.9522002943999366,0.4242545046310893,0.0,-3.0,0.8785971096381059,0.8,0.8,-0.8,nan,nan,nan,nan
23.682427644729614,-1.3243761,1.0901515,-1.1395,-1.038019078604239,nan,nan,nan,nan,nan,nan,13.676592826843262,13.676592826843262,0.01045370101928711,-1.991496675699856,0.18344752100913803,0.0,-3.0,0.8759370750954484,0.8,0.8,0.4188826222036768,nan,nan,nan,nan
23.77602243423462,-1.3540201,0.9465228,-1.1545848,-1.0347741853734735,nan,nan,nan,nan,nan,nan,13.769804239273071,13.769804239273071,0.01544952392578125,-1.999380682085734,-0.049752933166966544,0.0,-3.0,0.8291578378465191,0.8,0.8,-0.8,nan,nan,nan,nan
23.86520791053772,-1.4005877,0.691547,-1.1950629,-1.0362803332200188,nan,nan,nan,nan,nan,nan,13.859755516052246,13.859755516052246,0.013234853744506836,-1.9810074238612887,-0.27236076114183644,0.0,-3.0,0.7760119075564202,0.7999999999999999,0.7999999999999998,-0.7999999999999963,nan,nan,nan,nan
23.97432780265808,-1.4709163,0.23563354,-1.293678,-1.068612172733686,nan,nan,nan,nan,nan,nan,13.968265056610107,13.968265056610107,0.012375354766845703,-1.925240945909683,-0.5214589827543289,0.0,-3.0,0.7172923809053185,0.8,0.8,-0.7999999999999999,nan,nan,nan,nan
24.06462025642395,-1.4975883,0.031400748,-1.3412201,-1.0931618626231687,nan,nan,nan,nan,nan,nan,14.059499740600586,14.059499740600586,0.020837783813476562,-1.8506315401330726,-0.7017548086862484,0.0,-3.0,0.7168792583893784,0.8,0.8,-0.8,nan,nan,nan,nan
24.197588205337524,-1.5276738,-0.24035324,-1.4036814,-1.135649225581389,nan,nan,nan,nan,nan,nan,14.193082094192505,14.193082094192505,0.021596431732177734,-1.6979081280745516,-0.8972878156197296,0.0,-3.0,0.7304574104114574,0.7999999999999999,0.7999999999999996,-0.7999999999999987,nan,nan,nan,nan
24.266139030456543,-1.5276738,-0.24035324,-1.4036814,-1.135649225581389,nan,nan,nan,nan,nan,nan,14.261074304580688,14.261074304580688,0.018936872482299805,-1.601518152802808,-0.9592878524672326,0.0,-3.0,0.7539192096879486,0.8,0.8,-0.8,nan,nan,nan,nan
24.39417600631714,-1.5488281,-0.66234046,-1.511658,-1.213670570723032,nan,nan,nan,nan,nan,nan,14.390081882476807,14.390081882476807,0.021932125091552734,-1.3871583696472338,-0.9992816951003769,0.0,-3.0,0.8785971096381059,0.8,0.8,-0.8,nan,nan,nan,nan
24.47574019432068,-1.5488281,-0.66234046,-1.511658,-1.213670570723032,nan,nan,nan,nan,nan,nan,14.473447799682617,14.473447799682617,0.022686243057250977,-1.2288942510358576,-0.9695459537631974,0.0,-3.0,0.8785971096381059,0.8,0.8,-0.8,nan,nan,nan,nan
24.560328006744385,-1.5293406,-0.9121549,-1.6279871,-1.274131019973761,nan,nan,nan,nan,nan,nan,14.555545330047607,14.555545330047607,0.022976160049438477,-1.0598603227947934,-0.8988053119236242,0.0,-3.0,0.8785971096381059,0.7999999999999999,0.7999999999999998,-0.7999999999999983,nan,nan,nan,nan
24.634459018707275,-1.5293406,-0.9121549,-1.6279871,-1.274131019973761,nan,nan,nan,nan,nan,nan,14.630031108856201,14.630031108856201,0.02872633934020996,-0.896696546428663,-0.8015202351700769,0.0,-3.0,0.8785971096381059,0.8,0.8,-0.8,nan,nan,nan,nan
24.809314012527466,-1.4294726,-1.0807971,-1.8244338,-1.3447349961230985,nan,nan,nan,nan,nan,nan,14.805283069610596,14.805283069610596,0.026788949966430664,-0.4845082522621957,-0.4700761233037346,0.0,-3.0,0.8785971096381059,0.8,0.8,-0.8,nan,nan,nan,nan
24.89452028274536,-1.2341108,-1.0573606,-2.0341382,-1.4058511174399582,nan,nan,nan,nan,nan,nan,14.890269994735718,14.890269994735718,0.02796792984008789,-0.2749084673357385,-0.27229906885595007,0.0,-3.0,0.8785971096381059,0.8,0.19462050854480537,-0.7999999999999999,nan,nan,nan,nan
24.984771251678467,-1.0343274,-0.9274456,-2.1716483,-1.4757770774036039,nan,nan,nan,nan,nan,nan,14.981007814407349,14.981007814407349,0.031079769134521484,-0.0477280373077689,-0.0477144450192543,0.0,-3.0,0.8785971096381059,0.8,0.09507078102263974,0.7903055115110131,nan,nan,nan,nan
25.08228588104248,-0.8191471,-0.75099003,-2.2785583,-1.5393024824915778,nan,nan,nan,nan,nan,nan,15.078393936157227,15.078393936157227,0.036310434341430664,0.19670692504331388,0.19575320025975534,0.0,-3.0,0.8785971096381053,-0.7999999999999997,-0.8,-0.7999999999999994,nan,nan,nan,nan
25.18619966506958,-0.8191471,-0.75099003,-2.2785583,-1.5393024824915778,nan,nan,nan,nan,nan,nan,15.182503700256348,15.182503700256348,0.03507518768310547,0.45467148755595266,0.44276656956488203,0.0,-3.0,-0.01,-0.8,-0.8,0.8,nan,nan,nan,nan
25.287294626235962,-0.3418213,-0.32103553,-2.405375,-1.6881375196029227,nan,nan,nan,nan,nan,nan,15.28314995765686,15.28314995765686,0.033693790435791016,0.6967121078545991,0.653071655766293,0.0,-3.0,-0.01,-0.8,-0.8,0.7999999999999999,nan,nan,nan,nan
25.386154413223267,-0.3418213,-0.32103553,-2.405375,-1.6881375196029227,nan,nan,nan,nan,nan,nan,15.382113218307495,15.382113218307495,0.035584211349487305,0.9238734535020307,0.8193952673638901,0.0,-3.0,-0.01,-0.8,-0.8,0.8,nan,nan,nan,nan
25.48878788948059,0.06089736,0.04894675,-2.3517718,-1.795227459286545,nan,nan,nan,nan,nan,nan,15.485021352767944,15.485021352767944,0.03802323341369629,1.1449082538014428,0.9387523516883447,0.0,-3.0,-0.01,-0.8,-0.8,0.8,nan,nan,nan,nan
25.594357013702393,0.34646046,0.311601,-2.2106192,-1.8628368026846651,nan,nan,nan,nan,nan,nan,15.590436220169067,15.590436220169067,0.03737926483154297,1.3514739790376546,0.996229325322548,0.0,-3.0,-0.009999989806974323,-0.7999999999999998,-0.8,0.7999999999999998,nan,nan,nan,nan
25.697860717773438,0.34646046,0.311601,-2.2106192,-1.8628368026846651,nan,nan,nan,nan,nan,nan,15.69426965713501,15.69426965713501,0.03470897674560547,1.5318064801288809,0.9848839396223721,0.0,-3.0,-0.009999989806974323,-0.7999999999999998,-0.7999999999999999,0.7999999999999986,nan,nan,nan,nan
25.79998517036438,0.8721255,0.7935375,-1.7092304,-1.9656747151646687,nan,nan,nan,nan,nan,nan,15.795804738998413,15.795804738998413,0.04011678695678711,1.6829827382162805,0.9092660228855929,0.0,-3.0,-0.01,-0.8,-0.8,0.8,nan,nan,nan,nan
25.90921425819397,0.8721255,0.7935375,-1.7092304,-1.9656747151646687,nan,nan,nan,nan,nan,nan,15.905415534973145,15.905415534973145,0.038191795349121094,1.8154073195346414,0.7617663403206756,0.0,-3.0,-0.01,-0.8,-0.8,0.8,nan,nan,nan,nan
26.018908500671387,1.4002739,1.2748919,-0.872947,-2.034607362733266,nan,nan,nan,nan,nan,nan,16.01544451713562,16.01544451713562,0.03920865058898926,1.9137489482664827,0.5559473328887602,0.0,-3.0,0.8785971096381059,-0.8,-0.8,0.8,nan,nan,nan,nan
26.12835383415222,1.4002739,1.2748919,-0.872947,-2.034607362733266,nan,nan,nan,nan,nan,nan,16.1243999004364,16.1243999004364,0.04085111618041992,1.9751401827756943,0.3104510397914761,0.0,-3.0,0.8785971096381059,0.8,-0.8,0.8,nan,nan,nan,nan
26.233002424240112,1.8557115,1.7657944,0.02276364,-1.999998752126222,nan,nan,nan,nan,nan,nan,16.229294061660767,16.229294061660767,0.040680646896362305,1.999323005628431,0.05201621381732311,0.0,-3.0,0.8785971096381059,0.4751307277222518,-0.8,0.8,nan,nan,nan,nan
26.339484691619873,1.8557115,1.7657944,0.02276364,-1.999998752126222,nan,nan,nan,nan,nan,nan,16.335761070251465,16.335761070251465,0.04012584686279297,1.9883967478695908,-0.2138760180766581,0.0,-3.0,0.8785971096381059,0.8,-0.8,0.8,nan,nan,nan,nan
26.449145793914795,2.1103194,1.852449,0.042904854,-1.3425237542324278,nan,nan,nan,nan,nan,nan,16.445690631866455,16.445690631866455,0.04167747497558594,1.9398313713941349,-0.47223465684824983,0.0,-3.0,0.8785971096381059,0.8,-0.8,-0.8,nan,nan,nan,nan
26.561497688293457,2.1103194,1.852449,0.042904854,-1.3425237542324278,nan,nan,nan,nan,nan,nan,16.557363510131836,16.557363510131836,0.028598308563232422,1.8526607552830598,-0.6979197856081232,0.0,-3.0,0.8785971096381059,0.8,-0.8,0.8,nan,nan,nan,nan
26.706634998321533,2.2733002,1.9020842,0.0031953156,-1.0298866573232797,nan,nan,nan,nan,nan,nan,16.70158553123474,16.70158553123474,0.021690845489501953,1.6865172980016399,-0.9065165411027643,0.0,-3.0,-0.01,-0.8,-0.8,-0.8,nan,nan,nan,nan
26.764077186584473,2.5133998,1.9922359,-0.04780537,-0.6902629582258244,nan,nan,nan,nan,nan,nan,16.7587308883667,16.7587308883667,0.02332282066345215,1.6050390231430718,-0.9576078100147113,0.0,-3.0,-0.01,-0.8,-0.7999999999999998,-0.8,nan,nan,nan,nan
26.878050804138184,2.7860396,2.0992115,-0.010952041,-0.2931646258227416,nan,nan,nan,nan,nan,nan,16.87269353866577,16.87269353866577,0.02245044708251953,1.418306551576501,-0.9999831987782263,0.0,-3.0,-0.01,-0.8,0.8,-0.8,nan,nan,nan,nan
26.989472150802612,3.0595672,2.2040477,0.15564898,0.19126849385616704,nan,nan,nan,nan,nan,nan,16.984010457992554,16.984010457992554,0.024427175521850586,1.207842257617947,-0.962703524580817,0.0,-3.0,-0.01,-0.8,0.8,-0.46049974874794475,nan,nan,nan,nan
27.050455808639526,3.0595672,2.2040477,0.15564898,0.19126849385616704,nan,nan,nan,nan,nan,nan,17.04552721977234,17.04552721977234,0.02893686294555664,1.0811279750387877,-0.9095561044292508,0.0,-3.0,-0.01,-0.8,0.8,-0.8,nan,nan,nan,nan
27.181471586227417,3.399251,2.27884,0.20414658,-0.09127773810951356,nan,nan,nan,nan,nan,nan,17.17715835571289,17.17715835571289,0.028322696685791016,0.7893144695190738,-0.725244567621031,0.0,-3.0,-0.01,0.7999999999999999,0.8,-0.8,nan,nan,nan,nan
27.250129222869873,3.399251,2.27884,0.20414658,-0.09127773810951356,nan,nan,nan,nan,nan,nan,17.24481749534607,17.24481749534607,0.027502775192260742,0.630408358167985,-0.5982725862781094,0.0,-3.0,-0.01,0.8,0.8,-0.8,nan,nan,nan,nan
27.372588872909546,3.5146396,2.3174102,0.17579775,2.453072706975954,nan,nan,nan,nan,nan,nan,17.36691427230835,17.36691427230835,0.02121138572692871,0.33292389112259857,-0.3282788968786063,0.0,-3.0,-0.01,-0.8,0.8,0.8,nan,nan,nan,nan
27.485660552978516,3.5740526,2.3551986,0.15026246,-2.3266672231492236,nan,nan,nan,nan,nan,nan,17.482346773147583,17.482346773147583,0.05701565742492676,0.04436375933474001,-0.04435284371326798,0.0,-3.0,-0.01,0.8,0.8,0.8,nan,nan,nan,nan
27.624027729034424,3.6270604,2.4651783,0.2134706,-2.3487792150040754,nan,nan,nan,nan,nan,nan,17.620708227157593,17.620708227157593,0.05538034439086914,-0.3022108284655192,0.29874073940046164,0.0,-3.0,-0.01,0.8,0.8,-0.8,nan,nan,nan,nan
27.762375593185425,3.6270604,2.4651783,0.2134706,-2.3487792150040754,nan,nan,nan,nan,nan,nan,17.75916051864624,17.75916051864624,0.0706479549407959,-0.6398886305256264,0.6062537477787947,0.0,-3.0,-0.01,-0.8,0.8,-0.8,nan,nan,nan,nan
27.91285228729248,3.7409544,2.5722747,0.29502377,-2.7225508733407766,nan,nan,nan,nan,nan,nan,17.909478187561035,17.909478187561035,0.0594637393951416,-0.9843132621299711,0.8568512532602914,0.0,-3.0,-0.01,-0.8,0.8,-0.8,nan,nan,nan,nan
28.05474066734314,3.7409544,2.5722747,0.29502377,-2.7225508733407766,nan,nan,nan,nan,nan,nan,18.0516414642334,18.0516414642334,0.03585958480834961,-1.2780239786460954,0.9830519217760965,0.0,-3.0,-0.01,-0.8,0.8,-0.8,nan,nan,nan,nan
28.159600496292114,3.8718646,2.6760888,0.39155656,-2.7391792042798757,nan,nan,nan,nan,nan,nan,18.154809951782227,18.154809951782227,0.03710150718688965,-1.4661858754726351,0.9971947658533388,0.0,-3.0,-0.01,-0.8,0.8,-0.8,nan,nan,nan,nan
28.302611827850342,3.9774268,2.7832205,0.45868516,-2.313241988223019,nan,nan,nan,nan,nan,nan,18.297091245651245,18.297091245651245,0.024998903274536133,-1.684727418611861,0.9079155045948946,0.0,-3.0,-0.01,-0.8,-0.8,0.8,nan,nan,nan,nan
28.363250017166138,3.9774268,2.7832205,0.45868516,-2.313241988223019,nan,nan,nan,nan,nan,nan,18.357851266860962,18.357851266860962,0.02529120445251465,-1.7620340546933662,0.8335910991654667,0.0,-3.0,-0.01,-0.8,0.8,0.8,nan,nan,nan,nan
28.4814293384552,4.098572,2.8906183,0.5121497,-2.551051128691599,nan,nan,nan,nan,nan,nan,18.47610902786255,18.47610902786255,0.023650646209716797,-1.8827038713455997,0.6352738718115045,0.0,-3.0,-0.01,-0.8,0.8,-0.8,nan,nan,nan,nan
28.605275869369507,4.2817993,3.0505524,0.6361214,-2.397556721913027,nan,nan,nan,nan,nan,nan,18.599838972091675,18.599838972091675,0.03602957725524902,-1.964498626654962,0.3685008098352329,0.0,-3.0,-0.01,-0.8,0.8,-0.8,nan,nan,nan,nan
28.675493717193604,4.43312,3.16887,0.7262105,-2.565827073425468,nan,nan,nan,nan,nan,nan,18.67004632949829,18.67004632949829,0.03177022933959961,-1.9899137165807483,0.19959588608375342,0.0,-3.0,0.7022027835586803,-0.7212458665338835,0.6757884058516713,-0.7364437928076526,nan,nan,nan,nan
28.80262565612793,4.5152593,3.1716292,0.7329278,-2.838680256483261,nan,nan,nan,nan,nan,nan,18.79716157913208,18.79716157913208,0.020724058151245117,-1.9964886890954043,-0.11825262636862395,0.0,-3.0,-0.01,0.8,-0.8,-0.8,nan,nan,nan,nan
28.857139587402344,4.5152593,3.1716292,0.7329278,-2.838680256483261,nan,nan,nan,nan,nan,nan,18.85159730911255,18.85159730911255,0.07598328590393066,-1.9837222585189735,-0.25257622630234144,0.0,-3.0,-0.01,0.8,-0.8,0.799999999999989,nan,nan,nan,nan
28.9698588848114,4.4897656,3.153778,0.7277082,-2.84793016903704,nan,nan,nan,nan,nan,nan,18.964319229125977,18.964319229125977,0.03540802001953125,-1.9279033108714208,-0.512971584428569,0.0,-3.0,0.1988374962640277,0.6768896995781185,0.7998984230520892,-0.7897484576453906,nan,nan,nan,nan
29.097341775894165,4.3916917,3.152962,0.72405756,-2.8219843067999935,nan,nan,nan,nan,nan,nan,19.091808795928955,19.091808795928955,0.0347592830657959,-1.8183234895132583,-0.7572284155922597,0.0,-3.0,-0.01,0.8,-0.8,0.8,nan,nan,nan,nan
29.166104078292847,4.3163133,3.1364372,0.7225735,-2.8533105198678452,nan,nan,nan,nan,nan,nan,19.160635709762573,19.160635709762573,0.03272700309753418,-1.7395797172684633,-0.8583474880231392,0.0,-3.0,0.836040532818924,0.6228971023573906,-0.12170693255248936,0.4778922554400959,nan,nan,nan,nan
29.311450958251953,4.1009774,3.0624075,0.7207465,-3.0765152468513857,nan,nan,nan,nan,nan,nan,19.306426763534546,19.306426763534546,0.034508466720581055,-1.530680530594097,-0.9851856093401405,0.0,-3.0,-0.01,0.8,0.8,0.8,nan,nan,nan,nan
29.393737077713013,4.1009774,3.0624075,0.7207465,-3.0765152468513857,nan,nan,nan,nan,nan,nan,19.38870882987976,19.38870882987976,0.03439188003540039,-1.389642233691916,-0.9994065180219356,0.0,-3.0,-0.01,-0.8,-0.8,-0.8,nan,nan,nan,nan
29.473522424697876,3.947451,2.908252,0.72132385,-2.9075808538260395,nan,nan,nan,nan,nan,nan,19.468753576278687,19.468753576278687,0.06272673606872559,-1.2381808400461265,-0.9723678221120925,0.0,-3.0,-0.01,0.8,-0.8,0.8,nan,nan,nan,nan
29.587337732315063,3.947451,2.908252,0.72132385,-2.9075808538260395,nan,nan,nan,nan,nan,nan,19.582542181015015,19.582542181015015,0.04442238807678223,-1.001721495394549,-0.8670178824669218,0.0,-3.0,-0.01,0.7999999999999999,0.7999999999999999,0.8,nan,nan,nan,nan
29.68298101425171,3.9560359,2.728443,0.7208004,-2.6363997321036923,nan,nan,nan,nan,nan,nan,19.6785831451416,19.6785831451416,0.03972482681274414,-0.7860229859318918,-0.7227745138249325,0.0,-3.0,-0.01,-0.8,-0.8,0.8,nan,nan,nan,nan
29.789580821990967,3.9892092,2.6327949,0.7198032,-2.769770642405955,nan,nan,nan,nan,nan,nan,19.785964965820312,19.785964965820312,0.04572582244873047,-0.5314663413204066,-0.5123583290227366,0.0,-3.0,-0.01,-0.8,0.8,0.8,nan,nan,nan,nan
29.902791023254395,3.9892092,2.6327949,0.7198032,-2.769770642405955,nan,nan,nan,nan,nan,nan,19.898518085479736,19.898518085479736,0.03914594650268555,-0.2543611193073718,-0.252295600703044,0.0,-3.0,-0.01,-0.8,0.8,0.8,nan,nan,nan,nan
30.00205373764038,4.053201,2.5405664,0.71753323,-2.802321987701647,nan,nan,nan,nan,nan,nan,19.997730255126953,19.997730255126953,0.05189394950866699,-0.005704483320325735,-0.005704460116486914,0.0,-3.0,-0.01,-0.8,0.8,0.8,nan,nan,nan,nan
30.116125106811523,4.053201,2.5405664,0.71753323,-2.802321987701647,nan,nan,nan,nan,nan,nan,20.112284660339355,20.112284660339355,0.05102062225341797,0.2812666452395163,0.2784713469677864,0.0,-3.0,-0.01,-0.8,-0.8,0.8,nan,nan,nan,nan
30.237388610839844,4.034202,2.4776673,0.71349025,-2.901074656335018,nan,nan,nan,nan,nan,nan,20.23399519920349,20.23399519920349,0.05628204345703125,0.579655847229661,0.5547763061100456,0.0,-3.0,-0.01,-0.8,0.8,0.8,nan,nan,nan,nan
30.376594066619873,3.9466991,2.4452043,0.7114446,-2.819664834434142,nan,nan,nan,nan,nan,nan,20.373266458511353,20.373266458511353,0.05809783935546875,0.9040968529992587,0.8064484230263179,0.0,-3.0,-0.01,-0.8,0.8,0.8,nan,nan,nan,nan
30.51453924179077,3.9466991,2.4452043,0.7114446,-2.819664834434142,nan,nan,nan,nan,nan,nan,20.51101589202881,20.51101589202881,0.05946540832519531,1.1978555641050586,0.9592463794692441,0.0,-3.0,-0.01,-0.8,-0.8,0.8,nan,nan,nan,nan
30.655474185943604,3.8196156,2.3782692,0.71008193,-2.9058113219291495,nan,nan,nan,nan,nan,nan,20.652196645736694,20.652196645736694,0.06117534637451172,1.4617109246027478,0.997664868635014,0.0,-3.0,-0.01,-0.8,-0.8,0.8,nan,nan,nan,nan
30.79884648323059,3.8196156,2.3782692,0.71008193,-2.9058113219291495,nan,nan,nan,nan,nan,nan,20.795608282089233,20.795608282089233,0.05363297462463379,1.6827159283087083,0.9094714184479041,0.0,-3.0,-0.01,-0.8,-0.8,0.8,nan,nan,nan,nan
30.93786931037903,3.5970814,2.312607,0.7072983,-2.965839369067927,nan,nan,nan,nan,nan,nan,20.934640645980835,20.934640645980835,0.06244301795959473,1.8449970494273087,0.7121699888710468,0.0,-3.0,-0.01,0.49912612302669873,-0.8,0.8,nan,nan,nan,nan
31.082199811935425,3.5970814,2.312607,0.7072983,-2.965839369067927,nan,nan,nan,nan,nan,nan,21.07880449295044,21.07880449295044,0.05338549613952637,1.953897037328413,0.41710824443231675,0.0,-3.0,-0.01,-0.8,-0.8,0.8,nan,nan,nan,nan
31.212802410125732,3.4817357,2.2770514,0.70514333,-3.2837498822980327,nan,nan,nan,nan,nan,nan,21.209569931030273,21.209569931030273,0.051400184631347656,1.9974193133679778,0.1014370798770875,0.0,-3.0,-0.01,-0.755523394927884,-0.8,0.8,nan,nan,nan,nan
31.345465421676636,3.4298964,2.262374,0.7020966,-3.445145238783066,nan,nan,nan,nan,nan,nan,21.34235906600952,21.34235906600952,0.0670008659362793,1.986544766773246,-0.23004473514209803,0.0,-3.0,-0.01,-0.8,-0.8,0.8,nan,nan,nan,nan
31.49302053451538,3.4298964,2.262374,0.7020966,-3.445145238783066,nan,nan,nan,nan,nan,nan,21.489832878112793,21.489832878112793,0.05918240547180176,1.9098538117084336,-0.5669229963717619,0.0,-3.0,-0.01,0.8,0.537695787200051,-0.8,nan,nan,nan,nan
31.633589267730713,3.320995,2.260837,0.69376034,-3.719272035187836,nan,nan,nan,nan,nan,nan,21.630502939224243,21.630502939224243,0.08468747138977051,1.7756916228722015,-0.8170686642053586,0.0,-3.0,-0.01,0.24288468191700388,-0.8,0.8,nan,nan,nan,nan
31.798584461212158,3.320995,2.260837,0.69376034,-3.719272035187836,nan,nan,nan,nan,nan,nan,21.795913696289062,21.795913696289062,0.0721743106842041,1.5475524850061229,-0.9803110762978371,0.0,-3.0,0.19236965702984882,0.7915574032604495,-0.7773672433318439,0.7045807678430827,nan,nan,nan,nan
31.949682235717773,3.2314968,2.2738712,0.6842874,-4.169150792736804,nan,nan,nan,nan,nan,nan,21.946435689926147,21.946435689926147,0.06559991836547852,1.2817374941895654,-0.9839263939269411,0.0,-3.0,-0.01,-0.8,-0.8,-0.8,nan,nan,nan,nan
32.09847283363342,3.2216198,2.2624695,0.6809313,-4.316598546885235,nan,nan,nan,nan,nan,nan,22.09517765045166,22.09517765045166,0.06149625778198242,0.9741103292097235,-0.8507599147622228,0.0,-3.0,-0.01,-0.8,-0.8,0.8,nan,nan,nan,nan
32.240888833999634,3.2216198,2.2624695,0.6809313,-4.316598546885235,nan,nan,nan,nan,nan,nan,22.237815618515015,22.237815618515015,0.06910300254821777,0.6470843166414355,-0.612280081610979,0.0,-3.0,-0.01,-0.10930877585736826,0.799999999999987,-0.8,nan,nan,nan,nan
32.388970613479614,3.3157787,2.2278552,0.66830564,-4.89153028348197,nan,nan,nan,nan,nan,nan,22.385643005371094,22.385643005371094,0.08288002014160156,0.2864222679939718,-0.283469873015597,0.0,-3.0,-0.01,0.8,0.8,-0.8,nan,nan,nan,nan
