time,x,y,z,yaw,platform,trajectory,traj_double,traj_short,traj_spin,lookahead_time,traj_time,ref_time,comptime,x_ref,y_ref,yaw_ref,z_ref,throttle_input,p_input,q_input,r_input,cbf_term_pitch_cbf,cbf_term_roll_cbf,cbf_term_thrust_cbf,cbf_term_yaw_cbf
10.004842042922974,-0.018402645,-0.012704749,-2.8539808,-0.0013211358804943664,SIM,F8_CONTRACTION,NormSpd,Not Short,NoSpin,0.0,3.337860107421875e-06,3.337860107421875e-06,0.01075291633605957,4.1944786e-06,4.1944786e-06,0.0,-3.0,0.7378013835355421,0.0,0.0,0.0,nan,nan,nan,nan
10.29915475845337,-0.013198652,-0.014944255,-2.8708663,-0.0012764031112654874,nan,nan,nan,nan,nan,nan,0.29428839683532715,0.29428839683532715,0.009324312210083008,0.36770996,0.36144173,0.0,-3.0,0.6438485614237538,0.7999999999996641,-0.7999999999999977,-0.6192480569865746,nan,nan,nan,nan
10.393610715866089,-0.0113517875,-0.014576893,-2.8728,-0.0024791327745050783,nan,nan,nan,nan,nan,nan,0.3887908458709717,0.3887908458709717,0.008638858795166016,0.48372424,0.46936277,0.0,-3.0,0.6491696151388222,0.8,-0.8,-0.7920612486812042,nan,nan,nan,nan
10.490575551986694,-0.0051721865,-0.010797757,-2.861818,-0.020329934648839573,nan,nan,nan,nan,nan,nan,0.4856860637664795,0.4856860637664795,0.008697986602783203,0.60090214,0.57313883,0.0,-3.0,0.735129023350392,0.8,-0.8,-0.5228933712531774,nan,nan,nan,nan
10.598707914352417,0.009591384,0.0007750382,-2.847808,-0.05350806106645038,nan,nan,nan,nan,nan,nan,0.5938296318054199,0.5938296318054199,0.007126808166503906,0.7290342,0.67887425,0.0,-3.0,0.8208247482725608,0.5105944343563898,-0.8,0.15700435209136,nan,nan,nan,nan
10.70130443572998,0.052400388,0.03495661,-2.8428264,-0.10484076860959772,nan,nan,nan,nan,nan,nan,0.6964900493621826,0.6964900493621826,0.008110761642456055,0.8475656,0.76769423,0.0,-3.0,0.8545086689458081,-0.14547438020084888,-0.49756315234201653,0.2580684762259777,nan,nan,nan,nan
10.788768768310547,0.11390264,0.08182221,-2.8544242,-0.1384548686528788,nan,nan,nan,nan,nan,nan,0.7838819026947021,0.7838819026947021,0.008466243743896484,0.945709,0.8333025,0.0,-3.0,0.8288851159957499,-0.6237379796161796,0.07240805821184375,0.24388164419597005,nan,nan,nan,nan
10.901891469955444,0.2777988,0.18986225,-2.8980498,-0.18066335727089688,nan,nan,nan,nan,nan,nan,0.8970246315002441,0.8970246315002441,0.007159709930419922,1.0684948,0.90322876,0.0,-3.0,0.734768298569916,-0.8,0.61685468985103,0.37143712359430187,nan,nan,nan,nan
10.990654945373535,0.4038905,0.2584034,-2.9291532,-0.2119462325123157,nan,nan,nan,nan,nan,nan,0.985954761505127,0.985954761505127,0.008239030838012695,1.161246,0.9454546,0.0,-3.0,0.6895762236730277,-0.7999999999999864,0.7952930708043533,0.6301983795211236,nan,nan,nan,nan
11.103890895843506,0.6529138,0.3629507,-2.9736793,-0.2652460732951208,nan,nan,nan,nan,nan,nan,1.0990636348724365,1.0990636348724365,0.007683753967285156,1.2739412,0.9820661,0.0,-3.0,0.6598874147400865,-0.7999999999999999,0.7999999999999999,0.38542269434405446,nan,nan,nan,nan
11.195685386657715,0.8726978,0.42805523,-2.9944682,-0.2972233911232371,nan,nan,nan,nan,nan,nan,1.190809965133667,1.190809965133667,0.007811784744262695,1.3606529,0.99723506,0.0,-3.0,0.665935378607214,-0.7985559037592932,0.8,0.43214530745134316,nan,nan,nan,nan
11.300196647644043,1.1318008,0.47928312,-3.000685,-0.3171566641508146,nan,nan,nan,nan,nan,nan,1.2953298091888428,1.2953298091888428,0.007468461990356445,1.4539136,0.99837804,0.0,-3.0,0.7051306757324478,-0.4022514251491066,0.8,0.3720093161176226,nan,nan,nan,nan
11.40196704864502,1.3566169,0.50339323,-2.9951413,-0.3183709372076069,nan,nan,nan,nan,nan,nan,1.3971056938171387,1.3971056938171387,0.006906270980834961,1.5387056,0.98296225,0.0,-3.0,0.7381276810626591,-0.14718882579045314,0.5910189855274379,0.3865684266148018,nan,nan,nan,nan
11.497623920440674,1.5229659,0.5066319,-2.9879708,-0.3052757295661338,nan,nan,nan,nan,nan,nan,1.4928061962127686,1.4928061962127686,0.006698131561279297,1.6127039,0.9538111,0.0,-3.0,0.759974305501649,-0.0034609340634785086,0.2940958368188052,0.3512390404813477,nan,nan,nan,nan
11.605445623397827,1.6608888,0.49534786,-2.9824598,-0.28017794073815583,nan,nan,nan,nan,nan,nan,1.6005604267120361,1.6005604267120361,0.00770115852355957,1.6890332,0.90452695,0.0,-3.0,0.7640454576535288,0.09430126490059533,-0.028968093169540982,0.23820685985918863,nan,nan,nan,nan
11.688465356826782,1.7814544,0.4638946,-2.9801655,-0.24231163301709246,nan,nan,nan,nan,nan,nan,1.683607816696167,1.683607816696167,0.0077211856842041016,1.7425969,0.8551855,0.0,-3.0,0.7586531816771849,0.1262402094352372,-0.2190251408984927,0.15581689903013626,nan,nan,nan,nan
11.789371967315674,1.8535,0.41993868,-2.9819293,-0.20754362375424223,nan,nan,nan,nan,nan,nan,1.7845406532287598,1.7845406532287598,0.007932662963867188,1.8012973,0.7827502,0.0,-3.0,0.7463542954232033,0.15180881176185212,-0.36979742062404375,0.08810710086114601,nan,nan,nan,nan
11.89368224143982,1.8911164,0.3695926,-2.9852023,-0.1800195343230854,nan,nan,nan,nan,nan,nan,1.8888049125671387,1.8888049125671387,0.006584644317626953,1.8543282,0.6947343,0.0,-3.0,0.7390210898581242,0.12261393303276691,-0.42630376631920136,0.034208942840835144,nan,nan,nan,nan
11.993993520736694,1.9067844,0.30523065,-2.9891126,-0.15669164660861334,nan,nan,nan,nan,nan,nan,1.9891276359558105,1.9891276359558105,0.006771087646484375,1.8978467,0.5987833,0.0,-3.0,0.7324994570684067,0.13739969638445243,-0.4312042955188542,0.032221563332903214,nan,nan,nan,nan
12.102818965911865,1.9022466,0.22507833,-2.9925718,-0.13946146157844858,nan,nan,nan,nan,nan,nan,2.09810471534729,2.09810471534729,0.007197380065917969,1.9365727,0.4838394,0.0,-3.0,0.7315149871555509,0.1280789692201765,-0.3847385803948409,0.057709431687474416,nan,nan,nan,nan
12.20296597480774,1.8841827,0.13556764,-2.995739,-0.12908608843930844,nan,nan,nan,nan,nan,nan,2.1982645988464355,2.1982645988464355,0.006434440612792969,1.9641647,0.3701513,0.0,-3.0,0.7316326352883513,0.15553507009999756,-0.2959333563570573,0.11229073317237011,nan,nan,nan,nan
12.301127910614014,1.8548505,0.022565048,-2.9996712,-0.12017523361279661,nan,nan,nan,nan,nan,nan,2.2965900897979736,2.2965900897979736,0.006630420684814453,1.9836878,0.252838,0.0,-3.0,0.7307155858086678,0.18173932679610613,-0.1917273418967914,0.18057917400479884,nan,nan,nan,nan
12.38990306854248,1.8406472,-0.032639787,-3.0015886,-0.11584134755303799,nan,nan,nan,nan,nan,nan,2.3850784301757812,2.3850784301757812,0.007659196853637695,1.9947884,0.14391325,0.0,-3.0,0.7322537664402412,0.16931471735875936,-0.10623361338288038,0.200312387385578,nan,nan,nan,nan
12.489877462387085,1.8188187,-0.1301729,-3.0052152,-0.10594457919045386,nan,nan,nan,nan,nan,nan,2.4850962162017822,2.4850962162017822,0.006530046463012695,1.9999123,0.018727552,0.0,-3.0,0.731235989962167,0.16864757582653764,-0.0072594387951369676,0.22661847379902972,nan,nan,nan,nan
12.60416054725647,1.7962399,-0.27150086,-3.0113063,-0.08381558027423261,nan,nan,nan,nan,nan,nan,2.5994069576263428,2.5994069576263428,0.006487607955932617,1.9961001,-0.12459384,0.0,-3.0,0.7284083738008867,0.17754880529437375,0.09240903822918961,0.22846307403000546,nan,nan,nan,nan
12.689167499542236,1.7860681,-0.36180857,-3.0157526,-0.06533089607172182,nan,nan,nan,nan,nan,nan,2.6845028400421143,2.6845028400421143,0.00666499137878418,1.9865761,-0.22978143,0.0,-3.0,0.7268772974105101,0.17147979927633025,0.1435975134279061,0.20967991879433928,nan,nan,nan,nan
12.792467832565308,1.7771301,-0.46427387,-3.0209415,-0.04120486793069584,nan,nan,nan,nan,nan,nan,2.787660598754883,2.787660598754883,0.0066645145416259766,1.9674209,-0.35366362,0.0,-3.0,0.7255408379743682,0.16295308584044108,0.18165648453586852,0.17469968705973352,nan,nan,nan,nan
12.896564483642578,1.7715464,-0.5309938,-3.0241232,-0.024094671458241543,nan,nan,nan,nan,nan,nan,2.891665458679199,2.891665458679199,0.006813764572143555,1.9397444,-0.47254944,0.0,-3.0,0.7252934426779658,0.15439756234454824,0.19739812885142638,0.12519397959923845,nan,nan,nan,nan
12.994344711303711,1.7621553,-0.6193114,-3.027769,-0.00040604910547686196,nan,nan,nan,nan,nan,nan,2.989631414413452,2.989631414413452,0.006729841232299805,1.906099,-0.5771945,0.0,-3.0,0.726329258094265,0.14126486549146464,0.1727455826538743,0.07045375352093776,nan,nan,nan,nan
13.097078084945679,1.7480413,-0.69693995,-3.0301332,0.020151979937538422,nan,nan,nan,nan,nan,nan,3.0922176837921143,3.0922176837921143,0.0075495243072509766,1.8631308,-0.6773855,0.0,-3.0,0.7278466661099638,0.12989291666016142,0.14865491741420955,0.027533924970910287,nan,nan,nan,nan
13.198874950408936,1.7213379,-0.7713285,-3.0315266,0.03824050051816273,nan,nan,nan,nan,nan,nan,3.1940228939056396,3.1940228939056396,0.0076406002044677734,1.8128394,-0.76570386,0.0,-3.0,0.7296169045541285,0.10531315096268784,0.08898644266886421,-0.010614967842422118,nan,nan,nan,nan
13.301935911178589,1.689868,-0.81773335,-3.0319302,0.04760021142411388,nan,nan,nan,nan,nan,nan,3.2971928119659424,3.2971928119659424,0.0065691471099853516,1.7543101,-0.8424325,0.0,-3.0,0.7308676095176915,0.07466375916033488,0.026334569477372782,-0.036732967634754365,nan,nan,nan,nan
13.389073610305786,1.6594559,-0.84429,-3.0319858,0.051544532049637805,nan,nan,nan,nan,nan,nan,3.384359121322632,3.384359121322632,0.009362220764160156,1.6991057,-0.89628416,0.0,-3.0,0.7320878030004525,0.08286088770921218,0.03168912263175832,-0.04023651732274945,nan,nan,nan,nan
13.505244731903076,1.600546,-0.87208986,-3.0319102,0.05368592806190675,nan,nan,nan,nan,nan,nan,3.501375913619995,3.501375913619995,0.011171579360961914,1.617017,-0.9515894,0.0,-3.0,0.733491890209379,0.09376674597967397,0.035546817288234445,-0.036262068620370305,nan,nan,nan,nan
13.589516162872314,1.5387644,-0.8821155,-3.0318377,0.05254714872222648,nan,nan,nan,nan,nan,nan,3.584824323654175,3.584824323654175,0.007493734359741211,1.5531121,-0.9785354,0.0,-3.0,0.7320863515067922,0.021664238922821502,-0.05540731328418181,-0.04334090168458117,nan,nan,nan,nan
13.688886404037476,1.479203,-0.8811603,-3.0320175,0.0500696685551668,nan,nan,nan,nan,nan,nan,3.6847712993621826,3.6847712993621826,0.008853435516357422,1.4709705,-0.9966424,0.0,-3.0,0.7316327348522155,-0.007379034118513298,-0.08689245323798912,-0.03670956838139711,nan,nan,nan,nan
13.795042037963867,1.3698348,-0.8623861,-3.0333772,0.044671437348428385,nan,nan,nan,nan,nan,nan,3.7902450561523438,3.7902450561523438,0.008380413055419922,1.3780044,-0.9987214,0.0,-3.0,0.7301972037531927,-0.0469313968799527,-0.1218000705620912,-0.025091477899667994,nan,nan,nan,nan
13.892863750457764,1.2854861,-0.83738554,-3.0340865,0.0407642052899822,nan,nan,nan,nan,nan,nan,3.8880763053894043,3.8880763053894043,0.007488250732421875,1.2863573,-0.9849846,0.0,-3.0,0.7310132081330347,-0.031215149115661846,-0.09993833804332115,-0.010132066718262127,nan,nan,nan,nan
14.00230360031128,1.1779225,-0.7960245,-3.0345433,0.036771665415624565,nan,nan,nan,nan,nan,nan,3.997473955154419,3.997473955154419,0.00676727294921875,1.1781371,-0.9520326,0.0,-3.0,0.7315663817798385,-0.0267142470431206,-0.08485350523803058,-0.0042976194819001915,nan,nan,nan,nan
14.088345289230347,1.0900633,-0.7561117,-3.0348432,0.03454671886377787,nan,nan,nan,nan,nan,nan,4.083724021911621,4.083724021911621,0.009644746780395508,1.0888662,-0.91334563,0.0,-3.0,0.7323094580887256,-0.011382041431404345,-0.062118462016539984,-0.001407959955363937,nan,nan,nan,nan
14.205092668533325,0.95106924,-0.68405765,-3.0356,0.03273268165315984,nan,nan,nan,nan,nan,nan,4.200378894805908,4.200378894805908,0.007244110107421875,0.96309006,-0.8440727,0.0,-3.0,0.7314728435107661,-0.03487871479884975,-0.06674182450254643,-0.006245258460208813,nan,nan,nan,nan
14.297643184661865,0.8352221,-0.61701196,-3.0370326,0.03205401900799452,nan,nan,nan,nan,nan,nan,4.292938232421875,4.292938232421875,0.009364843368530273,0.8595797,-0.7761394,0.0,-3.0,0.7295952741242215,-0.08088302195621755,-0.09103881021828944,-0.017479557956491355,nan,nan,nan,nan
14.389112710952759,0.72578394,-0.54924804,-3.0392208,0.03215840807150505,nan,nan,nan,nan,nan,nan,4.384235620498657,4.384235620498657,0.007628202438354492,0.75463164,-0.6988528,0.0,-3.0,0.7308088694136048,-0.04241233633384301,-0.04155940652682927,-0.017102174206956377,nan,nan,nan,nan
14.50345778465271,0.57414454,-0.4477214,-3.042255,0.032555043852659185,nan,nan,nan,nan,nan,nan,4.498702049255371,4.498702049255371,0.006344318389892578,0.619585,-0.589104,0.0,-3.0,0.7277384138647227,-0.10969547584430331,-0.08175222512574086,-0.0312584522318233,nan,nan,nan,nan
14.587846040725708,0.49290186,-0.38975802,-3.0435305,0.03253387263182504,nan,nan,nan,nan,nan,nan,4.583009481430054,4.583009481430054,0.00805974006652832,0.5180312,-0.5003524,0.0,-3.0,0.7284782688132654,-0.09075421454346722,-0.044632141694901754,-0.03376131310115398,nan,nan,nan,nan
14.704187154769897,0.3103588,-0.251368,-3.0455267,0.031634238457951915,nan,nan,nan,nan,nan,nan,4.6994407176971436,4.6994407176971436,0.009679555892944336,0.37545297,-0.36877793,0.0,-3.0,0.7274355238425041,-0.12305355231845783,-0.04763741017655177,-0.0450006244639739,nan,nan,nan,nan
14.802328824996948,0.19969365,-0.16262491,-3.0462902,0.030341034266526862,nan,nan,nan,nan,nan,nan,4.797560930252075,4.797560930252075,0.00725102424621582,0.25370702,-0.25165746,0.0,-3.0,0.7274467108717423,-0.12700615617223704,-0.028550826792166296,-0.04780381239399933,nan,nan,nan,nan
14.902924299240112,0.10014327,-0.080580965,-3.0468307,0.028673082517333442,nan,nan,nan,nan,nan,nan,4.898151636123657,4.898151636123657,0.007498741149902344,0.1278991,-0.1276373,0.0,-3.0,0.7276498542916519,-0.11827044892947076,0.00680620245074738,-0.05241120309466689,nan,nan,nan,nan
15.004658699035645,-0.04709827,0.044581484,-3.047348,0.025196375058592742,nan,nan,nan,nan,nan,nan,4.999791860580444,4.999791860580444,0.006461143493652344,0.00026155572,-0.00026155572,0.0,-3.0,0.7266509994686701,-0.15918730466767414,-0.03219442886967049,-0.04539290579374748,nan,nan,nan,nan
15.094197273254395,-0.16332701,0.14507966,-3.047333,0.021702676232190594,nan,nan,nan,nan,nan,nan,5.089322090148926,5.089322090148926,0.006574153900146484,-0.112186536,0.1120099,0.0,-3.0,0.726869652893027,-0.15179334731892227,-0.003620241065036094,-0.046488621806174364,nan,nan,nan,nan
15.207612752914429,-0.3062593,0.26796526,-3.047503,0.016819648985427163,nan,nan,nan,nan,nan,nan,5.203370094299316,5.203370094299316,0.010796070098876953,-0.2548675,0.2527896,0.0,-3.0,0.7268579815183678,-0.15910681426955536,-0.012751711949415425,-0.040359957776030235,nan,nan,nan,nan
15.295111179351807,-0.39957392,0.34768623,-3.047799,0.013310481319746409,nan,nan,nan,nan,nan,nan,5.290226936340332,5.290226936340332,0.006688356399536133,-0.36269197,0.3566783,0.0,-3.0,0.7268685690957619,-0.15984821403113744,-0.023768008107623518,-0.0320738285278361,nan,nan,nan,nan
15.397486209869385,-0.50873554,0.43914053,-3.048149,0.00884222257304372,nan,nan,nan,nan,nan,nan,5.392870903015137,5.392870903015137,0.006212472915649414,-0.4886976,0.4738839,0.0,-3.0,0.7269473406390181,-0.15640182348682347,-0.03072647844562626,-0.02413727313384597,nan,nan,nan,nan
15.49348258972168,-0.6061473,0.51743865,-3.0481575,0.004721563303693083,nan,nan,nan,nan,nan,nan,5.4885993003845215,5.4885993003845215,0.004319190979003906,-0.6043929,0.5761349,0.0,-3.0,0.7272368042648366,-0.14945890380931207,-0.02814135684749962,-0.019790627090894984,nan,nan,nan,nan
15.604680299758911,-0.71812594,0.60135037,-3.0475407,1.5932504831672745e-05,nan,nan,nan,nan,nan,nan,5.599303245544434,5.599303245544434,0.005099296569824219,-0.73543495,0.6839086,0.0,-3.0,0.7277775021005944,-0.14177124352192488,-0.018209776707307394,-0.01715893716179324,nan,nan,nan,nan
15.691233396530151,-0.8181727,0.6688779,-3.045929,-0.003985863856822779,nan,nan,nan,nan,nan,nan,5.686342716217041,5.686342716217041,0.0060596466064453125,-0.83599854,0.7594607,0.0,-3.0,0.7286535546378309,-0.12771089457979268,-0.02226612770217809,-0.013015716910231179,nan,nan,nan,nan
15.803831338882446,-0.9306416,0.7341043,-3.04369,-0.00816667728017028,nan,nan,nan,nan,nan,nan,5.798996210098267,5.798996210098267,0.0064013004302978516,-0.9624018,0.84365135,0.0,-3.0,0.730070591999799,-0.09748939229906971,-0.032017459811165036,-0.0075125863262181115,nan,nan,nan,nan
15.900398254394531,-1.0162268,0.77424717,-3.0417323,-0.01108649741234985,nan,nan,nan,nan,nan,nan,5.895542621612549,5.895542621612549,0.0040569305419921875,-1.06692,0.902428,0.0,-3.0,0.7311145311773287,-0.07125442974968907,-0.03813966475730005,-0.004620942089943581,nan,nan,nan,nan
15.986467361450195,-1.084204,0.7993955,-3.0398211,-0.013218538512883439,nan,nan,nan,nan,nan,nan,5.982378959655762,5.982378959655762,0.009741067886352539,-1.1575845,0.9439813,0.0,-3.0,0.7317088788744283,-0.08143689918192176,-0.02748053712965103,-0.009317077322797813,nan,nan,nan,nan
16.105061292648315,-1.192991,0.8252382,-3.0363405,-0.01644135228339435,nan,nan,nan,nan,nan,nan,6.100186347961426,6.100186347961426,0.006571292877197266,-1.2750283,0.9823311,0.0,-3.0,0.7329603696813878,-0.05986952919980452,-0.034966626909448316,-0.009727710477172349,nan,nan,nan,nan
16.193163633346558,-1.2895501,0.83182955,-3.033068,-0.01900456374114043,nan,nan,nan,nan,nan,nan,6.189085245132446,6.189085245132446,0.007857084274291992,-1.3590636,0.9970716,0.0,-3.0,0.7333740846584116,-0.007646619756412232,-0.05217054416603114,-0.005123655045244852,nan,nan,nan,nan
16.293620824813843,-1.3612926,0.8255098,-3.0303571,-0.02065296359582401,nan,nan,nan,nan,nan,nan,6.28824520111084,6.28824520111084,0.007470130920410156,-1.4477857,0.99884534,0.0,-3.0,0.7339879322837684,0.00887997639681833,-0.05443734326605151,-0.006124455950410491,nan,nan,nan,nan
16.396671295166016,-1.4467522,0.80302393,-3.0274684,-0.022427575657351317,nan,nan,nan,nan,nan,nan,6.391800403594971,6.391800403594971,0.007079601287841797,-1.5344381,0.98416585,0.0,-3.0,0.7343326650254198,0.026754062504945716,-0.05312636273142327,-0.006574823704499821,nan,nan,nan,nan
16.495960235595703,-1.5087175,0.77469224,-3.0256824,-0.023553217241001893,nan,nan,nan,nan,nan,nan,6.491159200668335,6.491159200668335,0.004777193069458008,-1.6114789,0.9544308,0.0,-3.0,0.7345168683079951,0.03354182419050975,-0.04828868059723235,-0.007548629661547998,nan,nan,nan,nan
16.590189695358276,-1.5758711,0.7293273,-3.0243585,-0.02454076795350922,nan,nan,nan,nan,nan,nan,6.585483551025391,6.585483551025391,0.007816314697265625,-1.6788112,0.9124431,0.0,-3.0,0.7343039437028559,0.04765723295487342,-0.042796819909627144,-0.006800230769285174,nan,nan,nan,nan
16.70261812210083,-1.6227666,0.68605584,-3.0238817,-0.025158351135538277,nan,nan,nan,nan,nan,nan,6.697252511978149,6.697252511978149,0.006136417388916016,-1.7509475,0.84617287,0.0,-3.0,0.7345324601468358,0.033799968882405634,-0.03809653770652235,-0.00855692332284702,nan,nan,nan,nan
16.795159578323364,-1.6764679,0.61940885,-3.0235167,-0.02559950740350652,nan,nan,nan,nan,nan,nan,6.790310859680176,6.790310859680176,0.005664825439453125,-1.8044364,0.778217,0.0,-3.0,0.7341789851928147,0.042576905049031825,-0.03331345287116975,-0.0076053204074999796,nan,nan,nan,nan
16.90391206741333,-1.7275841,0.5297056,-3.023363,-0.025638058173677925,nan,nan,nan,nan,nan,nan,6.8985755443573,6.8985755443573,0.006100893020629883,-1.8588933,0.68585086,0.0,-3.0,0.7329100442921501,0.07783314495998885,-0.020280461401652836,-0.004627205105778813,nan,nan,nan,nan
17.004817724227905,-1.7604371,0.4494639,-3.023286,-0.025431405988785266,nan,nan,nan,nan,nan,nan,6.999439001083374,6.999439001083374,0.007915258407592773,-1.901895,0.5883554,0.0,-3.0,0.7319826315160584,0.10106744130711767,-0.009894405771589416,-0.0031291196994112733,nan,nan,nan,nan
17.098100423812866,-1.7863619,0.36303797,-3.023579,-0.0249529314701151,nan,nan,nan,nan,nan,nan,7.0934247970581055,7.0934247970581055,0.00641942024230957,-1.935095,0.48897776,0.0,-3.0,0.7312019807239156,0.11639954415202604,-0.0037846684711722784,-0.0028153646816620067,nan,nan,nan,nan
17.200308799743652,-1.8070674,0.26386258,-3.0242088,-0.02426048275147228,nan,nan,nan,nan,nan,nan,7.1955156326293945,7.1955156326293945,0.006717681884765625,-1.9635108,0.3733582,0.0,-3.0,0.730262514706165,0.13482929980582292,0.0022557681350391513,-0.003947740565910588,nan,nan,nan,nan
17.303677558898926,-1.8188844,0.17678118,-3.0246594,-0.02358826166973542,nan,nan,nan,nan,nan,nan,7.298803091049194,7.298803091049194,0.005372047424316406,-1.9840404,0.25014642,0.0,-3.0,0.7305146702479494,0.11414674821017912,-0.014408610741062932,-0.007431097306920345,nan,nan,nan,nan
17.395871877670288,-1.8259776,0.087775975,-3.0254068,-0.02288614165249361,nan,nan,nan,nan,nan,nan,7.390498399734497,7.390498399734497,0.00640559196472168,-1.9952682,0.13716993,0.0,-3.0,0.7297368174612229,0.1256978576555286,-0.015398489321551873,-0.00853278492837856,nan,nan,nan,nan
17.49875044822693,-1.828684,-0.0019220947,-3.0265236,-0.022180802741721888,nan,nan,nan,nan,nan,nan,7.494568824768066,7.494568824768066,0.006226539611816406,-1.9999883,0.0068249633,0.0,-3.0,0.7290528319597794,0.13111679135338705,-0.02257902846483456,-0.011144817005555053,nan,nan,nan,nan
17.596930742263794,-1.8260032,-0.098969266,-3.0277138,-0.02136288686357489,nan,nan,nan,nan,nan,nan,7.593103647232056,7.593103647232056,0.006617069244384766,-1.9965789,-0.11673076,0.0,-3.0,0.7283956788740431,0.13594523713049292,-0.028004379912095752,-0.011317123399023417,nan,nan,nan,nan
17.70233178138733,-1.8147002,-0.20958364,-3.0292351,-0.020223976090092632,nan,nan,nan,nan,nan,nan,7.696986675262451,7.696986675262451,0.0062427520751953125,-1.9847004,-0.24502042,0.0,-3.0,0.7279691896099775,0.13618526203404638,-0.0344787494202433,-0.010799425072538947,nan,nan,nan,nan
17.796005964279175,-1.7982969,-0.30042922,-3.0305498,-0.019081518725627224,nan,nan,nan,nan,nan,nan,7.791175127029419,7.791175127029419,0.006535768508911133,-1.9666222,-0.35779122,0.0,-3.0,0.7276162446189678,0.1390397428900167,-0.02584226681224018,-0.008314869994412196,nan,nan,nan,nan
17.895684480667114,-1.7762302,-0.38665843,-3.031658,-0.01783689879200543,nan,nan,nan,nan,nan,nan,7.890857458114624,7.890857458114624,0.006544351577758789,-1.9399915,-0.47165433,0.0,-3.0,0.7275919404975268,0.13845949681405623,-0.03551268728225031,-0.009694145108428125,nan,nan,nan,nan
17.993372678756714,-1.7437322,-0.47992218,-3.032249,-0.016358528901453423,nan,nan,nan,nan,nan,nan,7.987984895706177,7.987984895706177,0.0018639564514160156,-1.9067246,-0.57550365,0.0,-3.0,0.7278442989368755,0.12820916790209042,-0.007594858543830255,-0.004038320186325469,nan,nan,nan,nan
18.093477725982666,-1.7071711,-0.55683464,-3.0317056,-0.014809647020927425,nan,nan,nan,nan,nan,nan,8.088097333908081,8.088097333908081,0.0017578601837158203,-1.865007,-0.67356753,0.0,-3.0,0.7285537136597264,0.11545390447912222,-0.004547771184542528,-0.0038280709393659,nan,nan,nan,nan
18.1939115524292,-1.6678109,-0.6178452,-3.0301225,-0.013084532302609059,nan,nan,nan,nan,nan,nan,8.188636064529419,8.188636064529419,0.0019237995147705078,-1.8156883,-0.76133233,0.0,-3.0,0.729664221727863,0.10531639347585599,-0.016846401423606147,-0.007674164645408321,nan,nan,nan,nan
18.293341875076294,-1.6235039,-0.6684519,-3.0281262,-0.011257851472140146,nan,nan,nan,nan,nan,nan,8.288042545318604,8.288042545318604,0.0017571449279785156,-1.7598027,-0.83618146,0.0,-3.0,0.7307045686928028,0.08597732765709264,-0.015848688584393984,-0.009925588274258781,nan,nan,nan,nan
18.405850887298584,-1.56583,-0.713274,-3.0256891,-0.00909461463971352,nan,nan,nan,nan,nan,nan,8.40155553817749,8.40155553817749,0.008062124252319336,-1.6876076,-0.9056576,0.0,-3.0,0.7316159303273381,0.06798064377766955,-0.016732262321824225,-0.012421774386784122,nan,nan,nan,nan
18.502628803253174,-1.5207657,-0.7355433,-3.0240104,-0.007605702458244892,nan,nan,nan,nan,nan,nan,8.498066186904907,8.498066186904907,0.008045673370361328,-1.6194612,-0.9503028,0.0,-3.0,0.7329590080940047,0.09768131686176346,-0.06831332178572358,-0.020456821613817167,nan,nan,nan,nan
18.590364456176758,-1.4623634,-0.7515086,-3.0223036,-0.006123331182616522,nan,nan,nan,nan,nan,nan,8.585548639297485,8.585548639297485,0.009521961212158203,-1.5525385,-0.9787226,0.0,-3.0,0.7337451386697466,0.08757412201053422,-0.0689782017984506,-0.02446398971526926,nan,nan,nan,nan
18.70130157470703,-1.3761871,-0.7527422,-3.0209966,-0.00429854628649505,nan,nan,nan,nan,nan,nan,8.697097778320312,8.697097778320312,0.010611772537231445,-1.4604315,-0.9977911,0.0,-3.0,0.7335441044145575,0.03591767262007949,-0.02564187536256032,-0.02678779417193235,nan,nan,nan,nan
18.7899112701416,-1.3352582,-0.7463075,-3.0206876,-0.003623252887691636,nan,nan,nan,nan,nan,nan,8.785753965377808,8.785753965377808,0.011217832565307617,-1.3820893,-0.99899083,0.0,-3.0,0.7346992580027925,0.05278539487179633,-0.052416303479627294,-0.0332418352959911,nan,nan,nan,nan
18.8814435005188,-1.2406862,-0.7187945,-3.020972,-0.0026737267292440484,nan,nan,nan,nan,nan,nan,8.877445459365845,8.877445459365845,0.01142573356628418,-1.2965578,-0.98720294,0.0,-3.0,0.7327470539952815,-0.025655224455493238,0.020409166030489357,-0.03567610272353614,nan,nan,nan,nan
19.00006890296936,-1.1439611,-0.6765831,-3.0218394,-0.0020166066545699024,nan,nan,nan,nan,nan,nan,8.995599031448364,8.995599031448364,0.0075914859771728516,-1.1800402,-0.952751,0.0,-3.0,0.7315459946377529,-0.06346649851906062,0.051876555365302134,-0.04338785756796596,nan,nan,nan,nan
19.097074031829834,-1.0626253,-0.6327198,-3.0225468,-0.00177318693213218,nan,nan,nan,nan,nan,nan,9.092335939407349,9.092335939407349,0.0072977542877197266,-1.0797728,-0.90888566,0.0,-3.0,0.7321349307450111,-0.05555604433018435,0.03961608822655567,-0.054087324696574554,nan,nan,nan,nan
19.191957473754883,-0.984967,-0.5850816,-3.023154,-0.001763795025997529,nan,nan,nan,nan,nan,nan,9.187090158462524,9.187090158462524,0.008786201477050781,-0.9776918,-0.85290915,0.0,-3.0,0.7322383363372771,-0.05864627139955512,0.0357714704805428,-0.05706133243667931,nan,nan,nan,nan
19.288091897964478,-0.8702916,-0.5075847,-3.0241637,-0.0026130592783538548,nan,nan,nan,nan,nan,nan,9.283234357833862,9.283234357833862,0.007853031158447266,-0.8705742,-0.7837707,0.0,-3.0,0.7302011680141397,-0.1012463239296625,0.07055617912547814,-0.054202938475503115,nan,nan,nan,nan
19.39672040939331,-0.7581392,-0.42661104,-3.0256536,-0.004414377997907552,nan,nan,nan,nan,nan,nan,9.391934871673584,9.391934871673584,0.0067937374114990234,-0.74566287,-0.6918999,0.0,-3.0,0.7301148018476122,-0.09555349592248982,0.06172288232911497,-0.05235705109594704,nan,nan,nan,nan
19.49956440925598,-0.659883,-0.3525522,-3.027248,-0.006600378894435328,nan,nan,nan,nan,nan,nan,9.495625972747803,9.495625972747803,0.006772756576538086,-0.6232592,-0.59222317,0.0,-3.0,0.730047938775162,-0.07993363954194821,0.04313751595339391,-0.046519823966440034,nan,nan,nan,nan
19.604146242141724,-0.5498142,-0.26724482,-3.0291438,-0.009538691884853352,nan,nan,nan,nan,nan,nan,9.599477529525757,9.599477529525757,0.008502721786499023,-0.49801567,-0.48232892,0.0,-3.0,0.7299607275011681,-0.0673329064025037,0.025151885514600122,-0.041199743407431724,nan,nan,nan,nan
19.69611668586731,-0.4186711,-0.16332139,-3.031745,-0.0134299409408437,nan,nan,nan,nan,nan,nan,9.690767526626587,9.690767526626587,0.0068433284759521484,-0.38615263,-0.37888667,0.0,-3.0,0.7280860316667042,-0.09742871289468812,0.052476983870998826,-0.03005395415531526,nan,nan,nan,nan
19.79380702972412,-0.32370663,-0.08728409,-3.0337498,-0.016231127089109995,nan,nan,nan,nan,nan,nan,9.788487911224365,9.788487911224365,0.006849527359008789,-0.26501223,-0.2626754,0.0,-3.0,0.7278748099745668,-0.09599468564127436,0.04058228780989363,-0.02645465149018192,nan,nan,nan,nan
19.895787954330444,-0.18905143,0.0201083,-3.0371013,-0.01996803206205453,nan,nan,nan,nan,nan,nan,9.890409231185913,9.890409231185913,0.006608486175537109,-0.13760702,-0.13728093,0.0,-3.0,0.7270704423893162,-0.1060648239581488,0.03773505640673458,-0.014734069805971299,nan,nan,nan,nan
19.99063730239868,-0.0823706,0.10435004,-3.040117,-0.022601380535067116,nan,nan,nan,nan,nan,nan,9.985746145248413,9.985746145248413,0.008135080337524414,-0.017911682,-0.017910965,0.0,-3.0,0.7260702440972547,-0.11747986109991518,0.04294193195238091,-0.004399723835011056,nan,nan,nan,nan
20.08845090866089,0.024731675,0.18751599,-3.0430079,-0.024907763739782693,nan,nan,nan,nan,nan,nan,10.083635568618774,10.083635568618774,0.006754636764526367,0.10505119,0.10490617,0.0,-3.0,0.7253877027278376,-0.1201589488089262,0.035791405897611483,0.007132805798496391,nan,nan,nan,nan
20.196611881256104,0.17063296,0.29810557,-3.0465653,-0.027178285210612385,nan,nan,nan,nan,nan,nan,10.191231966018677,10.191231966018677,0.006829738616943359,0.23973137,0.23800293,0.0,-3.0,0.7248647120977578,-0.12393575797610479,0.033061099872077095,0.018758970678207247,nan,nan,nan,nan
20.294512510299683,0.2862212,0.38284066,-3.0488741,-0.02820181327979294,nan,nan,nan,nan,nan,nan,10.289611577987671,10.289611577987671,0.006936073303222656,0.3619315,0.35595578,0.0,-3.0,0.724608704241773,-0.1276712227663729,0.030864720772460774,0.027456443325576993,nan,nan,nan,nan
20.401602029800415,0.42850545,0.48278815,-3.0507612,-0.028350195952042447,nan,nan,nan,nan,nan,nan,10.39931607246399,10.39931607246399,0.006457328796386719,0.49654728,0.48100036,0.0,-3.0,0.7248430909412812,-0.13218549878207853,0.04784070990900079,0.03310878493820243,nan,nan,nan,nan
20.48807430267334,0.53113,0.54978573,-3.0512028,-0.027691812349324413,nan,nan,nan,nan,nan,nan,10.483233213424683,10.483233213424683,0.00972127914428711,0.59796154,0.5706102,0.0,-3.0,0.7255004995469209,-0.12938034749306385,0.056269099035262546,0.035832689075855566,nan,nan,nan,nan
20.605787754058838,0.65015835,0.6205701,-3.0506642,-0.026222804083838105,nan,nan,nan,nan,nan,nan,10.601438045501709,10.601438045501709,0.005137443542480469,0.737929,0.6858633,0.0,-3.0,0.726490551967303,-0.12327567407654173,0.047451671689463355,0.04241942344773682,nan,nan,nan,nan
20.70229148864746,0.7663434,0.6816983,-3.0487914,-0.02402654087263543,nan,nan,nan,nan,nan,nan,10.697468757629395,10.697468757629395,0.006273746490478516,0.84867936,0.7684818,0.0,-3.0,0.7277921621475697,-0.10588647701712803,0.055824602257050035,0.042075837093430817,nan,nan,nan,nan
20.804945707321167,0.879475,0.7312469,-3.0456874,-0.021313892703250778,nan,nan,nan,nan,nan,nan,10.802091360092163,10.802091360092163,0.011379003524780273,0.9658095,0.8457332,0.0,-3.0,0.7292520293508803,-0.08559542122466161,0.05926243583521872,0.042526471169187514,nan,nan,nan,nan
20.899714946746826,0.9728042,0.76258945,-3.0425117,-0.018818504794446217,nan,nan,nan,nan,nan,nan,10.895120859146118,10.895120859146118,0.0070340633392333984,1.0664717,0.90219945,0.0,-3.0,0.7303804865315185,-0.07987410454719679,0.049654551831018766,0.045671649253739295,nan,nan,nan,nan
21.003844022750854,1.0631179,0.78394145,-3.0389853,-0.016012686254147368,nan,nan,nan,nan,nan,nan,10.99861764907837,10.99861764907837,0.006303548812866211,1.1741647,0.9505183,0.0,-3.0,0.7317765197811875,-0.048297595144107475,0.05465965814406889,0.044059503172293665,nan,nan,nan,nan
21.08949875831604,1.1573814,0.79493827,-3.0350595,-0.012842132491266145,nan,nan,nan,nan,nan,nan,11.084259748458862,11.084259748458862,0.006787538528442383,1.2595453,0.97838897,0.0,-3.0,0.7326233577359736,-0.027205652422878937,0.0541030651524788,0.04313064618037471,nan,nan,nan,nan
21.199963092803955,1.2472762,0.79369754,-3.0313523,-0.009527986550471032,nan,nan,nan,nan,nan,nan,11.195097923278809,11.195097923278809,0.006543397903442383,1.3645972,0.997621,0.0,-3.0,0.733642473505303,-0.04406033589303464,0.03774337085901972,0.04787966230028931,nan,nan,nan,nan
21.30692410469055,1.3536365,0.775403,-3.0272448,-0.005276746438582981,nan,nan,nan,nan,nan,nan,11.302147150039673,11.302147150039673,0.006736040115356445,1.459783,0.9978537,0.0,-3.0,0.7337898424185796,0.018539593443704473,0.0471719208227056,0.03972101613562029,nan,nan,nan,nan
21.396029472351074,1.4269122,0.7503634,-3.0248497,-0.002217509899753521,nan,nan,nan,nan,nan,nan,11.39126706123352,11.39126706123352,0.007794380187988281,1.5340081,0.9842844,0.0,-3.0,0.7345471747879614,-0.0010397539935336198,0.04024702544655628,0.041046202065711065,nan,nan,nan,nan
21.492350578308105,1.5078536,0.70872605,-3.0225606,0.0012921774922417736,nan,nan,nan,nan,nan,nan,11.487773656845093,11.487773656845093,0.006721973419189453,1.6089555,0.9556918,0.0,-3.0,0.734779494673207,0.007275850373925218,0.03987154871788848,0.0377874329491973,nan,nan,nan,nan
21.59505558013916,1.576646,0.6590585,-3.0212772,0.004384816182959342,nan,nan,nan,nan,nan,nan,11.589874029159546,11.589874029159546,0.0076830387115478516,1.6818035,0.91017157,0.0,-3.0,0.7341620892411392,0.04589410113223026,0.040053387383132716,0.03035987347802565,nan,nan,nan,nan
21.693298816680908,1.6441453,0.59409696,-3.0202818,0.007473947232712573,nan,nan,nan,nan,nan,nan,11.689049243927002,11.689049243927002,0.009811639785766602,1.7459425,0.8516213,0.0,-3.0,0.7335355487370151,0.07025975020468136,0.036314607833504105,0.024117381239094658,nan,nan,nan,nan
21.80309557914734,1.7040894,0.5181863,-3.0196574,0.010306041925100838,nan,nan,nan,nan,nan,nan,11.798405408859253,11.798405408859253,0.006839275360107422,1.8088,0.77178895,0.0,-3.0,0.7333678762170802,0.07199474656426125,0.03265662974534104,0.020042004552067328,nan,nan,nan,nan
21.893006086349487,1.7410247,0.4598401,-3.0195045,0.012067345077614429,nan,nan,nan,nan,nan,nan,11.888180255889893,11.888180255889893,0.008078813552856445,1.854034,0.6952987,0.0,-3.0,0.7336313595984721,0.057973363769046535,0.034065625933383845,0.017353206409771917,nan,nan,nan,nan
22.00607132911682,1.7906859,0.361212,-3.0195878,0.014443292375783234,nan,nan,nan,nan,nan,nan,12.00253677368164,12.00253677368164,0.0068552494049072266,1.9030957,0.5852033,0.0,-3.0,0.7323980364347732,0.09581259612943736,0.026241814658208747,0.010041283521038082,nan,nan,nan,nan
22.090944051742554,1.8263463,0.27127287,-3.0203726,0.016044724038106015,nan,nan,nan,nan,nan,nan,12.086108207702637,12.086108207702637,0.006457328796386719,1.9327512,0.49697712,0.0,-3.0,0.7317163399661785,0.11412667992355595,0.021803714036294684,0.0047919870750178055,nan,nan,nan,nan
22.19339656829834,1.8576818,0.16980156,-3.022044,0.01716093045949725,nan,nan,nan,nan,nan,nan,12.188639640808105,12.188639640808105,0.007261037826538086,1.9618495,0.38135993,0.0,-3.0,0.7305180435651721,0.13277972255670606,0.014947570229655555,-0.00038462109940732274,nan,nan,nan,nan
22.292787313461304,1.8796743,0.07363193,-3.024207,0.017647566681804415,nan,nan,nan,nan,nan,nan,12.287917375564575,12.287917375564575,0.005821704864501953,1.9822693,0.26336712,0.0,-3.0,0.7300941309446063,0.12550611169057768,0.019072160622292278,-0.001175389380980317,nan,nan,nan,nan
22.40484070777893,1.8951377,-0.023614775,-3.026695,0.01767951084957525,nan,nan,nan,nan,nan,nan,12.399817943572998,12.399817943572998,0.006783246994018555,1.996039,0.12556021,0.0,-3.0,0.729806598976496,0.10574030321501426,0.03604316709328982,-0.0005202483163669367,nan,nan,nan,nan
22.48746967315674,1.9038749,-0.12042164,-3.028842,0.017358863502270873,nan,nan,nan,nan,nan,nan,12.484071731567383,12.484071731567383,0.006971836090087891,1.9998999,0.020014716,0.0,-3.0,0.728599396612341,0.1289068923652763,0.015281366748595145,-0.0049759465322639,nan,nan,nan,nan
22.59810471534729,1.9058557,-0.20766173,-3.0304906,0.016804716357651184,nan,nan,nan,nan,nan,nan,12.593328952789307,12.593328952789307,0.00811147689819336,1.9965622,-0.11701194,0.0,-3.0,0.7286549064840127,0.11423484592772316,0.036362219442329646,-0.00246797984194421,nan,nan,nan,nan
22.689679622650146,1.8998958,-0.3149197,-3.0327468,0.015790241572571247,nan,nan,nan,nan,nan,nan,12.684923887252808,12.684923887252808,0.0066187381744384766,1.9865148,-0.23029636,0.0,-3.0,0.7280175968669396,0.126754074245971,0.0052325734750482585,-0.007248941797419572,nan,nan,nan,nan
22.802502393722534,1.8881922,-0.39537895,-3.0346313,0.014879891782401695,nan,nan,nan,nan,nan,nan,12.797601699829102,12.797601699829102,0.006293535232543945,1.965137,-0.36532074,0.0,-3.0,0.728023213977684,0.12209328331644463,0.02150747109222208,-0.005067336110961909,nan,nan,nan,nan
22.897891521453857,1.8663299,-0.48478377,-3.036801,0.013615555703385854,nan,nan,nan,nan,nan,nan,12.892571449279785,12.892571449279785,0.00649261474609375,1.9394667,-0.4735525,0.0,-3.0,0.7278811743121816,0.12165975920978125,0.014491645905225628,-0.004262457737959921,nan,nan,nan,nan
22.990276336669922,1.8408952,-0.5545294,-3.0386121,0.012448376997845532,nan,nan,nan,nan,nan,nan,12.985100507736206,12.985100507736206,0.006786346435546875,1.9078155,-0.5725357,0.0,-3.0,0.7279361018013557,0.12095420690700583,0.016994470934390195,-0.0008453622147671497,nan,nan,nan,nan
23.103692531585693,1.8027593,-0.6284772,-3.0398679,0.010890183369544705,nan,nan,nan,nan,nan,nan,13.098339796066284,13.098339796066284,0.006104230880737305,1.86032,-0.68302476,0.0,-3.0,0.7282524892271697,0.11486204912321876,0.010694056850269008,0.0017840506743528523,nan,nan,nan,nan
23.18564224243164,1.7557416,-0.69224465,-3.0401087,0.009408829114601044,nan,nan,nan,nan,nan,nan,13.181348085403442,13.181348085403442,0.008390426635742188,1.8195093,-0.7553626,0.0,-3.0,0.7286993271792985,0.10207675065625767,-0.0028754427937563824,0.0035747838524572096,nan,nan,nan,nan
23.2964026927948,1.6955186,-0.74838614,-3.039283,0.007971476362068422,nan,nan,nan,nan,nan,nan,13.292605876922607,13.292605876922607,0.0033249855041503906,1.7570708,-0.8393128,0.0,-3.0,0.7296676442435052,0.08211093681835469,-0.021128819578645194,0.0060268751273266285,nan,nan,nan,nan
23.38445281982422,1.6568453,-0.7741729,-3.0383954,0.007233093453672061,nan,nan,nan,nan,nan,nan,13.379662036895752,13.379662036895752,0.007178544998168945,1.702212,-0.8936509,0.0,-3.0,0.7306811308915263,0.0925296739555573,0.0027749770195928947,0.012533106691445372,nan,nan,nan,nan
23.502200841903687,1.5765059,-0.8090295,-3.0360622,0.006157855640426577,nan,nan,nan,nan,nan,nan,13.497352361679077,13.497352361679077,0.006564617156982422,1.6199874,-0.9500231,0.0,-3.0,0.731699356030461,0.06640676384845921,-0.015266558588533792,0.014466555328359625,nan,nan,nan,nan
23.59075355529785,1.4990911,-0.82514274,-3.0335143,0.005481388326190058,nan,nan,nan,nan,nan,nan,13.586162090301514,13.586162090301514,0.0071833133697509766,1.5520524,-0.97888047,0.0,-3.0,0.7323000420727362,0.04011464169733495,-0.031315538566809784,0.015609702594749454,nan,nan,nan,nan
23.702330827713013,1.422678,-0.8288107,-3.0311406,0.0052810545147079155,nan,nan,nan,nan,nan,nan,13.698033332824707,13.698033332824707,0.010136842727661133,1.4596279,-0.9978685,0.0,-3.0,0.7341028771287302,0.06549828574743394,0.008941766701432832,0.023934741850742958,nan,nan,nan,nan
23.791876316070557,1.335337,-0.8204408,-3.029313,0.005697719810783493,nan,nan,nan,nan,nan,nan,13.787704467773438,13.787704467773438,0.0110321044921875,1.3803165,-0.99887776,0.0,-3.0,0.7337853672464775,0.024509736857245053,-0.0208227877141091,0.02056282782555439,nan,nan,nan,nan
23.884341716766357,1.2863634,-0.8103951,-3.028797,0.006162523598277805,nan,nan,nan,nan,nan,nan,13.880220651626587,13.880220651626587,0.011236190795898438,1.2939005,-0.9866408,0.0,-3.0,0.7356195398907293,0.06716264081080452,0.032579293828339476,0.028473638274048356,nan,nan,nan,nan
24.003811597824097,1.1380314,-0.76000386,-3.0287123,0.008551134185828556,nan,nan,nan,nan,nan,nan,13.999176263809204,13.999176263809204,0.009887218475341797,1.1764078,-0.9513759,0.0,-3.0,0.7326414606359508,-0.03657400468000303,-0.043633973006606167,0.02101175364376259,nan,nan,nan,nan
24.088982582092285,1.0832078,-0.73487425,-3.0290077,0.009319482023370643,nan,nan,nan,nan,nan,nan,14.084810972213745,14.084810972213745,0.010852813720703125,1.0877203,-0.9127886,0.0,-3.0,0.7338723342449446,-0.014588977270399905,-0.010174840891066059,0.027472407592333055,nan,nan,nan,nan
24.20116639137268,0.9523895,-0.66412926,-3.0302439,0.011400008934279032,nan,nan,nan,nan,nan,nan,14.196993350982666,14.196993350982666,0.010995626449584961,0.96681654,-0.8463464,0.0,-3.0,0.7312080146854096,-0.08907162314305535,-0.05451979561632938,0.022197298391289914,nan,nan,nan,nan
24.28975796699524,0.840729,-0.5934009,-3.0318482,0.013310470353257671,nan,nan,nan,nan,nan,nan,14.285613536834717,14.285613536834717,0.010884523391723633,0.86788154,-0.7819104,0.0,-3.0,0.7305280254287613,-0.10446480868204244,-0.055958385564935785,0.02036982049997886,nan,nan,nan,nan
24.39656352996826,0.73335844,-0.5183031,-3.0340018,0.01517939376978368,nan,nan,nan,nan,nan,nan,14.391807317733765,14.391807317733765,0.009282350540161133,0.7458116,-0.6920156,0.0,-3.0,0.729341670428646,-0.11989067556602032,-0.05868060075502095,0.01663729484652955,nan,nan,nan,nan
24.48031258583069,0.65984154,-0.46368137,-3.0354066,0.01641051534308647,nan,nan,nan,nan,nan,nan,14.476122379302979,14.476122379302979,0.011529207229614258,0.6465003,-0.61179197,0.0,-3.0,0.7307994817302987,-0.0811393521505347,-0.013658604284889042,0.01572289182283519,nan,nan,nan,nan
24.589531183242798,0.5184998,-0.35275966,-3.0375223,0.018725753417945565,nan,nan,nan,nan,nan,nan,14.584770679473877,14.584770679473877,0.007721900939941406,0.5158932,-0.49843496,0.0,-3.0,0.7273944869010429,-0.13945194779063996,-0.06555222860687634,0.008899978345817697,nan,nan,nan,nan
24.704195022583008,0.38378415,-0.24238594,-3.0389934,0.020668110819571487,nan,nan,nan,nan,nan,nan,14.699454069137573,14.699454069137573,0.006937980651855469,0.37543648,-0.3687623,0.0,-3.0,0.7271454819884065,-0.1440015014337045,-0.06246130227017344,0.003297943252200472,nan,nan,nan,nan
24.80006170272827,0.267403,-0.14471409,-3.04015,0.022051945293057772,nan,nan,nan,nan,nan,nan,14.795302391052246,14.795302391052246,0.006687164306640625,0.256522,-0.25440326,0.0,-3.0,0.7271310758575661,-0.1390510506908102,-0.05072525786997632,-0.0030746115869600184,nan,nan,nan,nan
24.899593353271484,0.14114188,-0.03662622,-3.0409544,0.02316204651944407,nan,nan,nan,nan,nan,nan,14.894947052001953,14.894947052001953,0.007043361663818359,0.13191758,-0.13163032,0.0,-3.0,0.7274888463910563,-0.12370936967268549,-0.021293095281116284,-0.010818699122754549,nan,nan,nan,nan
24.999903678894043,0.044198632,0.0472689,-3.0410903,0.02367064090749134,nan,nan,nan,nan,nan,nan,14.995312929153442,14.995312929153442,0.007122993469238281,0.005889938,-0.005889913,0.0,-3.0,0.7272166018817993,-0.12974861507848942,-0.019904404425518097,-0.016833236936083948,nan,nan,nan,nan
25.098752975463867,-0.08127986,0.15552078,-3.041114,0.023738396686200834,nan,nan,nan,nan,nan,nan,15.093870401382446,15.093870401382446,0.006352424621582031,-0.117892645,0.11768765,0.0,-3.0,0.7270385897483446,-0.13956168968156332,-0.027866446559244855,-0.021247003954157045,nan,nan,nan,nan
25.197625637054443,-0.17714326,0.23702514,-3.0413682,0.02329913020946236,nan,nan,nan,nan,nan,nan,15.192926168441772,15.192926168441772,0.008214473724365234,-0.24184488,0.24007021,0.0,-3.0,0.7270336732500935,-0.13563976672776845,-0.00512641351374423,-0.027970488484062955,nan,nan,nan,nan
25.2997305393219,-0.3188906,0.353904,-3.041801,0.021895414296453353,nan,nan,nan,nan,nan,nan,15.294972896575928,15.294972896575928,0.007587432861328125,-0.36855543,0.36224362,0.0,-3.0,0.7269161414513367,-0.1443828890819485,-0.035669054753393034,-0.02513113247231885,nan,nan,nan,nan
25.387832164764404,-0.43077657,0.4400938,-3.0420127,0.020222507094848012,nan,nan,nan,nan,nan,nan,15.383213520050049,15.383213520050049,0.008018970489501953,-0.4769207,0.4631626,0.0,-3.0,0.7270879643621405,-0.1392095040318885,-0.045855047264785974,-0.024456823333762125,nan,nan,nan,nan
25.495426893234253,-0.5230799,0.50593513,-3.0419843,0.018602752009928242,nan,nan,nan,nan,nan,nan,15.491209983825684,15.491209983825684,0.0071637630462646484,-0.6075194,0.5788133,0.0,-3.0,0.7271073397243134,-0.13172515936372928,-0.036514790935823896,-0.026895650226744804,nan,nan,nan,nan
25.60164475440979,-0.6413002,0.58265424,-3.041526,0.016337539140143766,nan,nan,nan,nan,nan,nan,15.596858978271484,15.596858978271484,0.006265878677368164,-0.73257774,0.68166447,0.0,-3.0,0.7274851113999926,-0.12342228241292218,-0.024950552635994973,-0.03256529816913937,nan,nan,nan,nan
25.699490308761597,-0.77535087,0.6576983,-3.0404725,0.013600974593166094,nan,nan,nan,nan,nan,nan,15.694682598114014,15.694682598114014,0.006502866744995117,-0.84550774,0.7662368,0.0,-3.0,0.728347103907701,-0.09585131202493909,-0.04765400669432212,-0.029062947013355944,nan,nan,nan,nan
25.790892601013184,-0.871759,0.7030484,-3.0391247,0.011413420622778843,nan,nan,nan,nan,nan,nan,15.786208868026733,15.786208868026733,0.007307291030883789,-0.94828457,0.83491546,0.0,-3.0,0.7290580112993755,-0.083607207942398,-0.05136907531548847,-0.029390886390886013,nan,nan,nan,nan
25.894716262817383,-0.98273146,0.7453127,-3.036832,0.008673660177563984,nan,nan,nan,nan,nan,nan,15.88996696472168,15.88996696472168,0.007081747055053711,-1.0609872,0.8993871,0.0,-3.0,0.7302282586648193,-0.06173814702107936,-0.06143710818079453,-0.028963211917567754,nan,nan,nan,nan
25.995651721954346,-1.0815339,0.77256256,-3.0342712,0.006067618562550038,nan,nan,nan,nan,nan,nan,15.990904569625854,15.990904569625854,0.006655454635620117,-1.1663046,0.9474625,0.0,-3.0,0.7313359357838359,-0.03955860587680489,-0.06739176686236688,-0.02800509031586459,nan,nan,nan,nan
26.094568014144897,-1.1833043,0.78994083,-3.0318387,0.003117097313156389,nan,nan,nan,nan,nan,nan,16.08980417251587,16.08980417251587,0.006580352783203125,-1.2649497,0.9798059,0.0,-3.0,0.7321936016532749,-0.02970964492185829,-0.06321182945350086,-0.029188651923844483,nan,nan,nan,nan
26.205086946487427,-1.2782393,0.7937187,-3.0300727,6.401143997699504e-05,nan,nan,nan,nan,nan,nan,16.200217485427856,16.200217485427856,0.007993221282958984,-1.3692935,0.99804384,0.0,-3.0,0.7329087138367388,-0.03544742319299501,-0.050203993428728805,-0.031769928879052556,nan,nan,nan,nan
26.285913467407227,-1.3330998,0.78914505,-3.0290382,-0.001896436199010823,nan,nan,nan,nan,nan,nan,16.281721591949463,16.281721591949463,0.010709762573242188,-1.4421178,0.9992056,0.0,-3.0,0.7336687061551679,-0.07415901322332312,-0.034666449190363324,-0.03740036617324785,nan,nan,nan,nan
26.398766040802002,-1.4219499,0.7680997,-3.0271692,-0.005601240047573508,nan,nan,nan,nan,nan,nan,16.393937587738037,16.393937587738037,0.006405353546142578,-1.5361593,0.98368627,0.0,-3.0,0.7336424223792101,-0.015568633092867247,-0.03103466932042849,-0.02931613865120016,nan,nan,nan,nan
26.49902367591858,-1.496332,0.73443824,-3.0252464,-0.0090466882855769,nan,nan,nan,nan,nan,nan,16.494391441345215,16.494391441345215,0.006349802017211914,-1.6138812,0.95321083,0.0,-3.0,0.7337029260256245,0.01928958927075916,-0.02451085128898073,-0.024500948551991652,nan,nan,nan,nan
26.605706214904785,-1.5636476,0.6880797,-3.023381,-0.012490543129866576,nan,nan,nan,nan,nan,nan,16.60088610649109,16.60088610649109,0.007735490798950195,-1.6892523,0.90435237,0.0,-3.0,0.7342307401630715,0.022909363633351706,-0.01931629771809797,-0.02258025529988263,nan,nan,nan,nan
26.691325187683105,-1.6195594,0.6342944,-3.0221202,-0.015473522839957253,nan,nan,nan,nan,nan,nan,16.686439752578735,16.686439752578735,0.006446123123168945,-1.7443407,0.85333556,0.0,-3.0,0.7334529359087533,0.06859588486647192,-0.017967406196841212,-0.01758514923726312,nan,nan,nan,nan
26.792726755142212,-1.6655288,0.576372,-3.0217314,-0.01799186201253823,nan,nan,nan,nan,nan,nan,16.787832021713257,16.787832021713257,0.006812334060668945,-1.8030908,0.7801695,0.0,-3.0,0.7340544414829119,0.044928680558336785,-0.021661816595841505,-0.01818135238237495,nan,nan,nan,nan
26.893829584121704,-1.7101625,0.5051269,-3.0224102,-0.020462489706071778,nan,nan,nan,nan,nan,nan,16.888965606689453,16.888965606689453,0.007054805755615234,-1.8544039,0.694589,0.0,-3.0,0.7334864960893512,0.054216652322989556,-0.026857179169541265,-0.01641031280329586,nan,nan,nan,nan
26.997491598129272,-1.7521491,0.41944498,-3.0240362,-0.022717174950660245,nan,nan,nan,nan,nan,nan,16.99261212348938,16.99261212348938,0.005114555358886719,-1.8992237,0.59527063,0.0,-3.0,0.7319730794372579,0.08339653987687552,-0.028489848339304673,-0.012816190496199848,nan,nan,nan,nan
27.099629163742065,-1.7920752,0.310939,-3.0260384,-0.024974679301074457,nan,nan,nan,nan,nan,nan,17.094860792160034,17.094860792160034,0.0077190399169921875,-1.9355502,0.4874029,0.0,-3.0,0.7309071186422887,0.09831568744042245,-0.032231422242448286,-0.010285919411415588,nan,nan,nan,nan
27.196038007736206,-1.8149568,0.22563773,-3.0271044,-0.026313417205608446,nan,nan,nan,nan,nan,nan,17.190678358078003,17.190678358078003,0.006819725036621094,-1.9623458,0.37899038,0.0,-3.0,0.7297920978694165,0.1249982911210555,-0.02815581417929131,-0.00524187421893109,nan,nan,nan,nan
27.299692153930664,-1.8371106,0.11201097,-3.0278375,-0.027713795847859754,nan,nan,nan,nan,nan,nan,17.297496795654297,17.297496795654297,0.007396697998046875,-1.9838327,0.25173545,0.0,-3.0,0.7291429504056129,0.14650562235482728,-0.0215677948244339,-2.6737944401656204e-05,nan,nan,nan,nan
27.399086475372314,-1.848166,0.028966077,-3.0278747,-0.028492378666731613,nan,nan,nan,nan,nan,nan,17.394895553588867,17.394895553588867,0.007996082305908203,-1.9956404,0.13169447,0.0,-3.0,0.7294583940500746,0.1407082440746817,-0.03224659535354366,0.002065088084721108,nan,nan,nan,nan
27.486830472946167,-1.854967,-0.05457033,-3.027798,-0.02901059355037793,nan,nan,nan,nan,nan,nan,17.483874082565308,17.483874082565308,0.00701451301574707,-1.9998974,0.020263039,0.0,-3.0,0.729358187531253,0.1493165827191184,-0.030415070846501097,0.005109080136964568,nan,nan,nan,nan
27.59214735031128,-1.8574317,-0.17033273,-3.0281699,-0.02926083168000591,nan,nan,nan,nan,nan,nan,17.587263584136963,17.587263584136963,0.004713773727416992,-1.9969945,-0.10943901,0.0,-3.0,0.7291715961980928,0.1542402663457996,-0.0224939902806499,0.011085798775454962,nan,nan,nan,nan
27.69383406639099,-1.850503,-0.28991792,-3.02887,-0.028789098065020075,nan,nan,nan,nan,nan,nan,17.688955307006836,17.688955307006836,0.007282733917236328,-1.9859211,-0.23522323,0.0,-3.0,0.7291867027543029,0.14462901583668808,-0.039548196574242134,0.009622851439926952,nan,nan,nan,nan
27.800214052200317,-1.837343,-0.38053802,-3.0294552,-0.027920472696066737,nan,nan,nan,nan,nan,nan,17.795566082000732,17.795566082000732,0.0049381256103515625,-1.965611,-0.3629383,0.0,-3.0,0.7290414826127971,0.13927304574434007,-0.014517312162299524,0.01418071888594675,nan,nan,nan,nan
27.89813804626465,-1.8191326,-0.4585106,-3.030017,-0.02673141975906844,nan,nan,nan,nan,nan,nan,17.893359184265137,17.893359184265137,0.00634765625,-1.9392248,-0.47442412,0.0,-3.0,0.7290105529177854,0.12837154535656387,-0.008091638017590014,0.016003974492508198,nan,nan,nan,nan
27.992753982543945,-1.7897938,-0.5425433,-3.0305233,-0.02484698142847225,nan,nan,nan,nan,nan,nan,17.98847723007202,17.98847723007202,0.005469560623168945,-1.9065377,-0.5760095,0.0,-3.0,0.7291749917753234,0.116649221563051,0.0002493399017756356,0.015213641695013365,nan,nan,nan,nan
28.104098558425903,-1.7486641,-0.62122434,-3.0307453,-0.02236674076202019,nan,nan,nan,nan,nan,nan,18.09945845603943,18.09945845603943,0.0064313411712646484,-1.8598034,-0.68405086,0.0,-3.0,0.7294181285404819,0.09750675058072206,0.013492224192601788,0.014743635389188077,nan,nan,nan,nan
28.20569634437561,-1.7029151,-0.6816311,-3.0303311,-0.019609368049141603,nan,nan,nan,nan,nan,nan,18.20108985900879,18.20108985900879,0.010807037353515625,-1.8090706,-0.7713855,0.0,-3.0,0.7298318071382217,0.08449262206267223,0.01294708054703392,0.009880848962969225,nan,nan,nan,nan
28.297994375228882,-1.6752319,-0.7090119,-3.029863,-0.018009343050843556,nan,nan,nan,nan,nan,nan,18.29322075843811,18.29322075843811,0.0063436031341552734,-1.7567016,-0.8397326,0.0,-3.0,0.7305468388023506,0.08173634675014295,-0.0015581366939494232,0.0029217875128453347,nan,nan,nan,nan
28.394025087356567,-1.6088493,-0.7547945,-3.0281324,-0.014719176496154535,nan,nan,nan,nan,nan,nan,18.389360904693604,18.389360904693604,0.006745576858520508,-1.6957818,-0.89905393,0.0,-3.0,0.7309728362275189,0.0563948877308085,0.01707737491355325,9.329837277517676e-05,nan,nan,nan,nan
28.504838466644287,-1.5437156,-0.78014606,-3.026834,-0.01206657779659797,nan,nan,nan,nan,nan,nan,18.500021934509277,18.500021934509277,0.006600379943847656,-1.6180178,-0.951065,0.0,-3.0,0.7316888106179242,0.043745112899654735,0.016275077666658505,-0.0059152474720922605,nan,nan,nan,nan
28.593331813812256,-1.4774529,-0.7914129,-3.0257778,-0.009920238396583049,nan,nan,nan,nan,nan,nan,18.588507652282715,18.588507652282715,0.007052898406982422,-1.5501918,-0.9794788,0.0,-3.0,0.732618736818177,0.05524353387332587,-0.006382656481547899,-0.014088928026416004,nan,nan,nan,nan
28.698007345199585,-1.398984,-0.7911716,-3.0246902,-0.00797534190810524,nan,nan,nan,nan,nan,nan,18.693970441818237,18.693970441818237,0.011011123657226562,-1.4631135,-0.9975223,0.0,-3.0,0.7324022984655998,0.015389057233533296,0.027410537219478677,-0.016646193118287418,nan,nan,nan,nan
28.79649305343628,-1.3209742,-0.77921677,-3.0233064,-0.006741098451168312,nan,nan,nan,nan,nan,nan,18.791775703430176,18.791775703430176,0.00847768783569336,-1.3766098,-0.99862236,0.0,-3.0,0.7324158901328929,-0.004420431071377939,0.041265613569154265,-0.020733793155434443,nan,nan,nan,nan
28.900548219680786,-1.2523943,-0.7607751,-3.022259,-0.006080422692487854,nan,nan,nan,nan,nan,nan,18.895869970321655,18.895869970321655,0.007347583770751953,-1.2788426,-0.9832465,0.0,-3.0,0.7340284557940537,0.0289157359014763,0.0023323693637208494,-0.031518599625930434,nan,nan,nan,nan
29.00845503807068,-1.1587719,-0.72598803,-3.0214567,-0.005746238495548964,nan,nan,nan,nan,nan,nan,19.004468202590942,19.004468202590942,0.008057832717895508,-1.1710234,-0.9493064,0.0,-3.0,0.7347471075997359,0.03263721966064863,-0.0098651192946454,-0.03619413864493477,nan,nan,nan,nan
29.089876413345337,-1.0835656,-0.69084466,-3.0215561,-0.005977824861378024,nan,nan,nan,nan,nan,nan,19.08609890937805,19.08609890937805,0.011800289154052734,-1.0863618,-0.9121264,0.0,-3.0,0.7341883847774827,0.009942736914125538,0.0026594274590033087,-0.036989777196808196,nan,nan,nan,nan
29.181185722351074,-0.9659445,-0.6241454,-3.0229151,-0.006931435764211048,nan,nan,nan,nan,nan,nan,19.17707371711731,19.17707371711731,0.00931406021118164,-0.98865294,-0.8594126,0.0,-3.0,0.7319830391132423,-0.044739300208877716,0.04120445241616402,-0.03158374508180236,nan,nan,nan,nan
29.301711559295654,-0.8679002,-0.5591433,-3.0243614,-0.008080434957014819,nan,nan,nan,nan,nan,nan,19.297050714492798,19.297050714492798,0.007815361022949219,-0.85491055,-0.77287036,0.0,-3.0,0.7305047972296569,-0.07942203763204084,0.0499481905296681,-0.03247123081452658,nan,nan,nan,nan
29.399965047836304,-0.7577589,-0.47775438,-3.0263045,-0.009760081073351926,nan,nan,nan,nan,nan,nan,19.395278692245483,19.395278692245483,0.0069408416748046875,-0.7417622,-0.68886,0.0,-3.0,0.7302011926707122,-0.09305637395058976,0.039600980013911845,-0.035552992983073864,nan,nan,nan,nan
29.496657133102417,-0.67016155,-0.40866515,-3.0284314,-0.011223032360597143,nan,nan,nan,nan,nan,nan,19.49192976951599,19.49192976951599,0.0075609683990478516,-0.627671,-0.5959594,0.0,-3.0,0.7300894372922533,-0.09857997307968464,0.02610867519838267,-0.0346888342895733,nan,nan,nan,nan
29.599967002868652,-0.55297107,-0.3115917,-3.0319173,-0.01337325847624992,nan,nan,nan,nan,nan,nan,19.59519624710083,19.59519624710083,0.00840306282043457,-0.50322443,-0.48703477,0.0,-3.0,0.7282628621917688,-0.13215501804337426,0.04413485377933082,-0.031528961604409635,nan,nan,nan,nan
29.70074701309204,-0.44169188,-0.21568939,-3.0352175,-0.015471167122306607,nan,nan,nan,nan,nan,nan,19.69590663909912,19.69590663909912,0.007851600646972656,-0.37981415,-0.3729023,0.0,-3.0,0.7271035308775039,-0.14647223250064664,0.05028273802144383,-0.026005956527263174,nan,nan,nan,nan
29.804370403289795,-0.30005884,-0.0906522,-3.039007,-0.01820456347505653,nan,nan,nan,nan,nan,nan,19.799606800079346,19.799606800079346,0.0064432621002197266,-0.2511567,-0.24916844,0.0,-3.0,0.7255718047762988,-0.1628552530808087,0.06922922111949327,-0.018385646554447188,nan,nan,nan,nan
29.903361558914185,-0.17554396,0.019981904,-3.04197,-0.020643176299105732,nan,nan,nan,nan,nan,nan,19.89870595932007,19.89870595932007,0.007729768753051758,-0.12720393,-0.12694639,0.0,-3.0,0.7252876452279733,-0.15753614926699464,0.0641838139947272,-0.011483718011800505,nan,nan,nan,nan
30.004997730255127,-0.06012496,0.12216044,-3.0439045,-0.02262939981174683,nan,nan,nan,nan,nan,nan,20.0002121925354,20.0002121925354,0.006491422653198242,0.000266649,0.000266649,0.0,-3.0,0.7252103050463549,-0.15593137156097853,0.06524254518091976,-0.003941150232832776,nan,nan,nan,nan
30.101967811584473,0.06484595,0.23011458,-3.045234,-0.024452276279122942,nan,nan,nan,nan,nan,nan,20.0972797870636,20.0972797870636,0.006247282028198242,0.12216928,0.12194114,0.0,-3.0,0.7255815662485292,-0.14441732189363612,0.04845243241261109,0.005972650122605675,nan,nan,nan,nan
30.200966835021973,0.1795173,0.3254972,-3.0454683,-0.025680030794703622,nan,nan,nan,nan,nan,nan,20.196117162704468,20.196117162704468,0.006268978118896484,0.24582489,0.24396092,0.0,-3.0,0.7260040776605066,-0.13587336830559266,0.042227605972881874,0.014107213791291772,nan,nan,nan,nan
30.305681705474854,0.30283988,0.42276263,-3.0449586,-0.02643098366504549,nan,nan,nan,nan,nan,nan,20.300856828689575,20.300856828689575,0.007075309753417969,0.37582022,0.36912546,0.0,-3.0,0.7265687292114212,-0.12670546684942124,0.03330136112419227,0.022594157272372673,nan,nan,nan,nan
30.40370798110962,0.41541922,0.5052799,-3.0441055,-0.026478267813856232,nan,nan,nan,nan,nan,nan,20.398914098739624,20.398914098739624,0.0064280033111572266,0.49605796,0.48055744,0.0,-3.0,0.7273137801024305,-0.1190946296202235,0.03909016576909449,0.02739620178213915,nan,nan,nan,nan
30.504635095596313,0.5256964,0.5795792,-3.0431807,-0.02599464005688097,nan,nan,nan,nan,nan,nan,20.49980592727661,20.49980592727661,0.006525754928588867,0.617802,0.58758795,0.0,-3.0,0.7279988325882973,-0.10793134384752073,0.04472887172986689,0.03165846591658165,nan,nan,nan,nan
30.60080099105835,0.63353884,0.64525765,-3.0421088,-0.024918345090349688,nan,nan,nan,nan,nan,nan,20.596202611923218,20.596202611923218,0.0060961246490478516,0.73181015,0.68106073,0.0,-3.0,0.7282658160982767,-0.10634915979251863,0.02952378702817108,0.03898966343698869,nan,nan,nan,nan
30.700299978256226,0.74745375,0.7055885,-3.04054,-0.02320424142900087,nan,nan,nan,nan,nan,nan,20.695469856262207,20.695469856262207,0.006723165512084961,0.8464042,0.7668721,0.0,-3.0,0.729198873213464,-0.08365634967743056,0.048776643364921365,0.039182655998197743,nan,nan,nan,nan
30.799821615219116,0.8328391,0.7440677,-3.038863,-0.02148678296171108,nan,nan,nan,nan,nan,nan,20.794451475143433,20.794451475143433,0.006566524505615234,0.9573915,0.8405714,0.0,-3.0,0.7299442769169142,-0.07483100748072367,0.04532105127424791,0.04309686226238785,nan,nan,nan,nan
30.896066427230835,0.91648644,0.77517706,-3.037058,-0.019451225545842173,nan,nan,nan,nan,nan,nan,20.893077611923218,20.893077611923218,0.0034689903259277344,1.0642987,0.901089,0.0,-3.0,0.7305069975157428,-0.07662459519078502,0.037363009479237,0.04805868712748175,nan,nan,nan,nan
30.99937915802002,1.0385865,0.80719787,-3.0342548,-0.01597445744973472,nan,nan,nan,nan,nan,nan,20.9945011138916,20.9945011138916,0.006281137466430664,1.1699731,0.9488985,0.0,-3.0,0.7313700952002538,-0.0746801531976435,0.03537612919693855,0.051229448882143834,nan,nan,nan,nan
31.101911306381226,1.1329433,0.82004863,-3.0322614,-0.012824903306772273,nan,nan,nan,nan,nan,nan,21.09713888168335,21.09713888168335,0.005734443664550781,1.2720757,0.9816072,0.0,-3.0,0.7321003141489624,-0.05331847834171809,0.04506990936928584,0.05034324703424636,nan,nan,nan,nan
31.199320554733276,1.2312646,0.8211189,-3.0308897,-0.009268081329845676,nan,nan,nan,nan,nan,nan,21.19395899772644,21.19395899772644,0.0073528289794921875,1.3635505,0.99752134,0.0,-3.0,0.7324492675748884,-0.034922408395117774,0.051127761907297384,0.04884853714421729,nan,nan,nan,nan
